[
  {
    "name": "73",
    "date": "October 7, 2023",
    "managingAgency": "US Forest Service",
    "burnType": "Underburn",
    "acres": 128,
    "status": "Approved",
    "approvedOn": "Sat Oct 07, 2023 @ 12:25 PM",
    "coordinates": [
      -120.22208912930961,
      39.42313474109931
    ]
  },
  {
    "name": "Boondocks",
    "date": "October 7, 2023",
    "managingAgency": "US Forest Service",
    "burnType": "Underburn",
    "acres": 50,
    "status": "Approved",
    "approvedOn": "Fri Oct 06, 2023 @ 8:07 AM",
    "coordinates": [
      -121.773991,
      40.241146
    ]
  },
  {
    "name": "Butterfly under burn Unit 114",
    "date": "October 7, 2023",
    "managingAgency": "US Forest Service",
    "burnType": "Underburn",
    "acres": 72,
    "status": "Patrol",
    "approvedOn": "Thu Oct 05, 2023 @ 2:14 PM",
    "coordinates": [
      -120.98081538725675,
      40.008999275806396
    ]
  },
  {
    "name": "Butterfly under burn unit 117",
    "date": "October 7, 2023",
    "managingAgency": "US Forest Service",
    "burnType": "Underburn",
    "acres": 60,
    "status": "Approved",
    "approvedOn": "Thu Oct 05, 2023 @ 2:14 PM",
    "coordinates": [
      -120.99232069512645,
      40.002471671737176
    ]
  },
  {
    "name": "Butterfly under burn unit 27",
    "date": "October 7, 2023",
    "managingAgency": "US Forest Service",
    "burnType": "Underburn",
    "acres": 41,
    "status": "Active",
    "approvedOn": "Thu Oct 05, 2023 @ 2:14 PM",
    "coordinates": [
      -120.97554636032154,
      40.005805633643064
    ]
  },
  {
    "name": "CALFIRE-Howard Forest Broadcast",
    "date": "October 7, 2023",
    "managingAgency": "Private Landowner",
    "burnType": "Underburn",
    "acres": 1,
    "status": "Approved",
    "approvedOn": "Thu Oct 05, 2023 @ 3:35 PM",
    "coordinates": [
      -123.31296342725058,
      39.34560844686746
    ]
  },
  {
    "name": "Crook Units 1-4",
    "date": "October 7, 2023",
    "managingAgency": "CAL FIRE",
    "burnType": "Underburn",
    "acres": 100,
    "status": "Approved",
    "approvedOn": "Wed Oct 04, 2023 @ 11:29 AM",
    "coordinates": [
      -120.25447512338332,
      37.88187193348664
    ]
  }
]