[
  {
    "name": "005",
    "date": "October 13, 2023",
    "managingAgency": "US Forest Service",
    "burnType": "Underburn",
    "acres": 113,
    "status": "Active",
    "approvedOn": "Thu Oct 12, 2023 @ 8:11 AM",
    "coordinates": [
      -120.70588965593794,
      39.88155723034817
    ]
  },
  {
    "name": "17",
    "date": "October 13, 2023",
    "managingAgency": "US Forest Service",
    "burnType": "Machine Pile",
    "acres": 55,
    "status": "Approved",
    "approvedOn": "Thu Oct 12, 2023 @ 5:46 PM",
    "coordinates": [
      -120.964255,
      39.727481
    ]
  },
  {
    "name": "2018- Camelot 18/19",
    "date": "October 13, 2023",
    "managingAgency": "CAL FIRE",
    "burnType": "Underburn",
    "acres": 300,
    "status": "Approved",
    "approvedOn": "Thu Oct 12, 2023 @ 10:31 AM",
    "coordinates": [
      -121.636118,
      39.622714
    ]
  },
  {
    "name": "2023-Forked Meadow Prescribed Burn",
    "date": "October 13, 2023",
    "managingAgency": "Private Landowner",
    "burnType": "Underburn",
    "acres": 45,
    "status": "Approved",
    "approvedOn": "Thu Oct 12, 2023 @ 2:10 PM",
    "coordinates": [
      -119.171464,
      37.060372
    ]
  },
  {
    "name": "2023-Segments 1,2,3,4,6",
    "date": "October 13, 2023",
    "managingAgency": "US Forest Service",
    "burnType": "Underburn",
    "acres": 300,
    "status": "Approved",
    "approvedOn": "Thu Oct 12, 2023 @ 2:08 PM",
    "coordinates": [
      -118.972035,
      36.715202
    ]
  },
  {
    "name": "2023-Shaver Lake Understory",
    "date": "October 13, 2023",
    "managingAgency": "Southern California Edison",
    "burnType": "Underburn",
    "acres": 400,
    "status": "Approved",
    "approvedOn": "Thu Oct 12, 2023 @ 2:09 PM",
    "coordinates": [
      -119.288965,
      37.107236
    ]
  },
  {
    "name": "40/41",
    "date": "October 13, 2023",
    "managingAgency": "US Forest Service",
    "burnType": "Underburn",
    "acres": 110,
    "status": "Approved",
    "approvedOn": "Thu Oct 12, 2023 @ 9:45 AM",
    "coordinates": [
      -118.932,
      37.671
    ]
  },
  {
    "name": "89",
    "date": "October 13, 2023",
    "managingAgency": "US Forest Service",
    "burnType": "Underburn",
    "acres": 56,
    "status": "Approved",
    "approvedOn": "Thu Oct 12, 2023 @ 5:46 PM",
    "coordinates": [
      -120.22950626982924,
      39.422168651849304
    ]
  },
  {
    "name": "90",
    "date": "October 13, 2023",
    "managingAgency": "US Forest Service",
    "burnType": "Underburn",
    "acres": 110,
    "status": "Approved",
    "approvedOn": "Thu Oct 12, 2023 @ 5:46 PM",
    "coordinates": [
      -120.26241690142444,
      39.41616387936158
    ]
  },
  {
    "name": "Admin - Shafter Campground",
    "date": "October 13, 2023",
    "managingAgency": "US Forest Service",
    "burnType": "Hand Pile",
    "acres": 1,
    "status": "Approved",
    "approvedOn": "Fri Oct 13, 2023 @ 12:37 PM",
    "coordinates": [
      -121.981,
      41.7099
    ]
  },
  {
    "name": "Admin - The Pit",
    "date": "October 13, 2023",
    "managingAgency": "US Forest Service",
    "burnType": "Hand Pile",
    "acres": 1,
    "status": "Approved",
    "approvedOn": "Thu Oct 12, 2023 @ 4:38 PM",
    "coordinates": [
      -121.957,
      41.697226
    ]
  },
  {
    "name": "BCCER Bunr units",
    "date": "October 13, 2023",
    "managingAgency": "CSU Chico Research Foundation",
    "burnType": "Underburn",
    "acres": 0.25,
    "status": "Approved",
    "approvedOn": "Fri Oct 13, 2023 @ 12:12 PM",
    "coordinates": [
      -121.7020157634645,
      39.84554310755987
    ]
  },
  {
    "name": "Butte",
    "date": "October 13, 2023",
    "managingAgency": "US Forest Service",
    "burnType": "Hand Pile",
    "acres": 5,
    "status": "Approved",
    "approvedOn": "Thu Oct 12, 2023 @ 4:38 PM",
    "coordinates": [
      -122.195,
      41.83
    ]
  },
  {
    "name": "Desert Cold Springs Unit 203",
    "date": "October 13, 2023",
    "managingAgency": "US Forest Service",
    "burnType": "Machine Pile",
    "acres": 30,
    "status": "Approved",
    "approvedOn": "Thu Oct 12, 2023 @ 4:31 PM",
    "coordinates": [
      -120.485936,
      39.004459
    ]
  },
  {
    "name": "Desert Cold Springs Unit 301",
    "date": "October 13, 2023",
    "managingAgency": "US Forest Service",
    "burnType": "Machine Pile",
    "acres": 36,
    "status": "Approved",
    "approvedOn": "Thu Oct 12, 2023 @ 4:31 PM",
    "coordinates": [
      -120.491925,
      38.993342
    ]
  },
  {
    "name": "Fallen Leaf HT 116",
    "date": "October 13, 2023",
    "managingAgency": "US Forest Service",
    "burnType": "Hand Pile",
    "acres": 10,
    "status": "Approved",
    "approvedOn": "Thu Oct 12, 2023 @ 4:24 PM",
    "coordinates": [
      -120.048438,
      38.896803
    ]
  },
  {
    "name": "French Meadows Hand Piles",
    "date": "October 13, 2023",
    "managingAgency": "US Forest Service",
    "burnType": "Machine Pile",
    "acres": 263,
    "status": "Active",
    "approvedOn": "Thu Oct 12, 2023 @ 4:31 PM",
    "coordinates": [
      -120.382659,
      39.165416
    ]
  },
  {
    "name": "Grass Flat 21",
    "date": "October 13, 2023",
    "managingAgency": "US Forest Service",
    "burnType": "Hand Pile",
    "acres": 15,
    "status": "Approved",
    "approvedOn": "Thu Oct 12, 2023 @ 5:46 PM",
    "coordinates": [
      -120.967181,
      39.72629
    ]
  },
  {
    "name": "Grass Flat 21",
    "date": "October 13, 2023",
    "managingAgency": "US Forest Service",
    "burnType": "Underburn",
    "acres": 25,
    "status": "Approved",
    "approvedOn": "Thu Oct 12, 2023 @ 5:46 PM",
    "coordinates": [
      -120.967181,
      39.72629
    ]
  },
  {
    "name": "Grass Flat 922",
    "date": "October 13, 2023",
    "managingAgency": "US Forest Service",
    "burnType": "Machine Pile",
    "acres": 71,
    "status": "Approved",
    "approvedOn": "Thu Oct 12, 2023 @ 5:46 PM",
    "coordinates": [
      -120.969845,
      39.722498
    ]
  },
  {
    "name": "Thomas Creek Unit",
    "date": "October 13, 2023",
    "managingAgency": "Private Landowner",
    "burnType": "Underburn",
    "acres": 11,
    "status": "Approved",
    "approvedOn": "Wed Oct 11, 2023 @ 3:21 PM",
    "coordinates": [
      -122.9067179,
      38.4609013
    ]
  },
  {
    "name": "Usal Redwood SMP 22-55 Piles",
    "date": "October 13, 2023",
    "managingAgency": "Private Landowner",
    "burnType": "Machine Pile",
    "acres": 1,
    "status": "Approved",
    "approvedOn": "Thu Oct 12, 2023 @ 11:47 AM",
    "coordinates": [
      -123.4931,
      39.515
    ]
  },
  {
    "name": "WIlder Ranch Eucalyptus Loop",
    "date": "October 13, 2023",
    "managingAgency": "California State Parks",
    "burnType": "Underburn",
    "acres": 1,
    "status": "Approved",
    "approvedOn": "Fri Oct 13, 2023 @ 10:23 AM",
    "coordinates": [
      -122.098961,
      36.989117
    ]
  },
  {
    "name": "Yosemite Valley (Unit: YV-7)",
    "date": "October 13, 2023",
    "managingAgency": "National Park Service",
    "burnType": "Underburn",
    "acres": 35,
    "status": "Approved",
    "approvedOn": "Mon Oct 09, 2023 @ 9:07 PM",
    "coordinates": [
      -119.64438,
      37.722738
    ]
  }
]