[
  {
    "name": "1N17M",
    "date": "January 6, 2024",
    "managingAgency": "US Forest Service",
    "burnType": "Machine Pile",
    "acres": 26,
    "status": "Approved",
    "approvedOn": "Fri Jan 05, 2024 @ 8:27 AM",
    "coordinates": [
      -120.054,
      37.892
    ]
  },
  {
    "name": "1N18M",
    "date": "January 6, 2024",
    "managingAgency": "US Forest Service",
    "burnType": "Machine Pile",
    "acres": 619,
    "status": "Approved",
    "approvedOn": "Fri Jan 05, 2024 @ 8:27 AM",
    "coordinates": [
      -119.992,
      37.9
    ]
  },
  {
    "name": "1S17M",
    "date": "January 6, 2024",
    "managingAgency": "US Forest Service",
    "burnType": "Machine Pile",
    "acres": 218,
    "status": "Approved",
    "approvedOn": "Fri Jan 05, 2024 @ 8:27 AM",
    "coordinates": [
      -120.083,
      37.822
    ]
  },
  {
    "name": "1S18M",
    "date": "January 6, 2024",
    "managingAgency": "US Forest Service",
    "burnType": "Machine Pile",
    "acres": 499,
    "status": "Approved",
    "approvedOn": "Fri Jan 05, 2024 @ 8:27 AM",
    "coordinates": [
      -119.977,
      37.835
    ]
  },
  {
    "name": "Carbonizer",
    "date": "January 6, 2024",
    "managingAgency": "Earth Foundries, Inc.",
    "burnType": "Machine Pile",
    "acres": 8,
    "status": "Approved",
    "approvedOn": "Sat Jan 06, 2024 @ 7:15 AM",
    "coordinates": [
      -122.102868,
      37.74467
    ]
  },
  {
    "name": "Carbonizer",
    "date": "January 6, 2024",
    "managingAgency": "Earth Foundries, Inc.",
    "burnType": "Machine Pile",
    "acres": 16,
    "status": "Approved",
    "approvedOn": "Sat Jan 06, 2024 @ 7:15 AM",
    "coordinates": [
      -122.102868,
      37.74467
    ]
  },
  {
    "name": "Castle Rock SP Burn Piles",
    "date": "January 6, 2024",
    "managingAgency": "California State Parks",
    "burnType": "Hand Pile",
    "acres": 5,
    "status": "Approved",
    "approvedOn": "Fri Jan 05, 2024 @ 2:08 PM",
    "coordinates": [
      -122.105804,
      37.231762
    ]
  },
  {
    "name": "Cranston Reforestation ",
    "date": "January 6, 2024",
    "managingAgency": "US Forest Service",
    "burnType": "Hand Pile",
    "acres": 12,
    "status": "Patrol",
    "approvedOn": "Fri Jan 05, 2024 @ 1:40 PM",
    "coordinates": [
      -116.682302,
      33.715395
    ]
  },
  {
    "name": "Fallen Leaf HT 116",
    "date": "January 6, 2024",
    "managingAgency": "US Forest Service",
    "burnType": "Unknown",
    "acres": 52.5,
    "status": "Approved",
    "approvedOn": "Fri Jan 05, 2024 @ 3:38 PM",
    "coordinates": [
      -120.048438,
      38.896803
    ]
  },
  {
    "name": "Unit 1",
    "date": "January 6, 2024",
    "managingAgency": "CAL FIRE",
    "burnType": "Hand Pile",
    "acres": 5,
    "status": "Active",
    "approvedOn": "Fri Jan 05, 2024 @ 7:58 AM",
    "coordinates": [
      -122.5286,
      39.5944
    ]
  }
]