[
  {
    "name": "2B",
    "date": "October 19, 2023",
    "managingAgency": "California State Parks",
    "burnType": "Underburn",
    "acres": 16,
    "status": "Active",
    "approvedOn": "Tue Oct 17, 2023 @ 1:46 PM",
    "coordinates": [
      -123.22529010890025,
      38.52837557419765
    ]
  },
  {
    "name": "3N",
    "date": "October 19, 2023",
    "managingAgency": "California State Parks",
    "burnType": "Underburn",
    "acres": 20,
    "status": "Active",
    "approvedOn": "Tue Oct 17, 2023 @ 1:46 PM",
    "coordinates": [
      -123.23813412296983,
      38.515581011017545
    ]
  },
  {
    "name": "993",
    "date": "October 19, 2023",
    "managingAgency": "US Forest Service",
    "burnType": "Hand Pile",
    "acres": 106,
    "status": "Approved",
    "approvedOn": "Thu Oct 19, 2023 @ 8:02 AM",
    "coordinates": [
      -120.963721,
      39.748187
    ]
  },
  {
    "name": "Amex 9-26-23",
    "date": "October 19, 2023",
    "managingAgency": "CAL FIRE",
    "burnType": "Underburn",
    "acres": 40,
    "status": "Approved",
    "approvedOn": "Wed Oct 18, 2023 @ 8:14 AM",
    "coordinates": [
      -121.74142227010203,
      40.66308822518685
    ]
  },
  {
    "name": "CAVE 23",
    "date": "October 19, 2023",
    "managingAgency": "CAL FIRE",
    "burnType": "Unknown",
    "acres": 100,
    "status": "Approved",
    "approvedOn": "Tue Oct 17, 2023 @ 1:07 PM",
    "coordinates": [
      -121.75283673768747,
      39.87427618668016
    ]
  },
  {
    "name": "D4",
    "date": "October 19, 2023",
    "managingAgency": "US Forest Service",
    "burnType": "Underburn",
    "acres": 76,
    "status": "Approved",
    "approvedOn": "Thu Oct 19, 2023 @ 8:03 AM",
    "coordinates": [
      -120.509,
      39.628
    ]
  },
  {
    "name": "D6",
    "date": "October 19, 2023",
    "managingAgency": "US Forest Service",
    "burnType": "Underburn",
    "acres": 87,
    "status": "Approved",
    "approvedOn": "Thu Oct 19, 2023 @ 8:02 AM",
    "coordinates": [
      -120.512,
      39.634
    ]
  },
  {
    "name": "Eastside Lassen Co.",
    "date": "October 19, 2023",
    "managingAgency": "US Forest Service",
    "burnType": "Underburn",
    "acres": 197.4,
    "status": "Approved",
    "approvedOn": "Thu Oct 19, 2023 @ 8:24 AM",
    "coordinates": [
      -121.2633,
      41.04083
    ]
  },
  {
    "name": "Grass Flat 884",
    "date": "October 19, 2023",
    "managingAgency": "US Forest Service",
    "burnType": "Hand Pile",
    "acres": 174,
    "status": "Approved",
    "approvedOn": "Thu Oct 19, 2023 @ 8:01 AM",
    "coordinates": [
      -120.96561,
      39.739269
    ]
  },
  {
    "name": "Ignome Oak Grove",
    "date": "October 19, 2023",
    "managingAgency": "Private Landowner",
    "burnType": "Underburn",
    "acres": 7.8,
    "status": "Approved",
    "approvedOn": "Wed Oct 18, 2023 @ 4:17 PM",
    "coordinates": [
      -122.622161,
      38.736723
    ]
  },
  {
    "name": "McDermott Broadcast",
    "date": "October 19, 2023",
    "managingAgency": "UC Berkeley",
    "burnType": "Underburn",
    "acres": 40,
    "status": "Approved",
    "approvedOn": "Thu Oct 19, 2023 @ 8:02 AM",
    "coordinates": [
      -120.67685073186487,
      39.3854616300773
    ]
  },
  {
    "name": "North Shore",
    "date": "October 19, 2023",
    "managingAgency": "CAL FIRE",
    "burnType": "Underburn",
    "acres": 12,
    "status": "Active",
    "approvedOn": "Tue Oct 17, 2023 @ 1:30 PM",
    "coordinates": [
      -122.3341,
      41.2923
    ]
  },
  {
    "name": "Pioneer Rx Burn",
    "date": "October 19, 2023",
    "managingAgency": "California State Parks",
    "burnType": "Underburn",
    "acres": 20,
    "status": "Approved",
    "approvedOn": "Wed Oct 18, 2023 @ 10:17 AM",
    "coordinates": [
      -120.30123,
      38.28027
    ]
  },
  {
    "name": "Plot 3",
    "date": "October 19, 2023",
    "managingAgency": "Santa Barbara County Fire Department",
    "burnType": "Underburn",
    "acres": 49,
    "status": "Approved",
    "approvedOn": "Wed Oct 18, 2023 @ 5:59 PM",
    "coordinates": [
      -120.08679,
      34.72124
    ]
  },
  {
    "name": "Plot 6 / Midland West ",
    "date": "October 19, 2023",
    "managingAgency": "Santa Barbara County Fire Department",
    "burnType": "Underburn",
    "acres": 145,
    "status": "Approved",
    "approvedOn": "Wed Oct 18, 2023 @ 5:59 PM",
    "coordinates": [
      -120.08665194821802,
      34.72840104383969
    ]
  },
  {
    "name": "Plot 7 / Midland East ",
    "date": "October 19, 2023",
    "managingAgency": "Santa Barbara County Fire Department",
    "burnType": "Underburn",
    "acres": 100,
    "status": "Approved",
    "approvedOn": "Wed Oct 18, 2023 @ 5:59 PM",
    "coordinates": [
      -120.08169450277937,
      34.73177290883173
    ]
  },
  {
    "name": "Track 3",
    "date": "October 19, 2023",
    "managingAgency": "US Fish and Wildlife Services",
    "burnType": "Underburn",
    "acres": 74,
    "status": "Approved",
    "approvedOn": "Mon Oct 16, 2023 @ 11:20 AM",
    "coordinates": [
      -122.09933997681966,
      39.33778671979919
    ]
  },
  {
    "name": "Track 32",
    "date": "October 19, 2023",
    "managingAgency": "US Fish and Wildlife Services",
    "burnType": "Underburn",
    "acres": 14,
    "status": "Approved",
    "approvedOn": "Wed Oct 18, 2023 @ 8:50 AM",
    "coordinates": [
      -122.11540740500233,
      39.29321652644713
    ]
  },
  {
    "name": "Unit 1",
    "date": "October 19, 2023",
    "managingAgency": "CAL FIRE",
    "burnType": "Underburn",
    "acres": 65,
    "status": "Approved",
    "approvedOn": "Wed Oct 18, 2023 @ 1:35 PM",
    "coordinates": [
      -121.9249044,
      40.343007
    ]
  },
  {
    "name": "Unit 59",
    "date": "October 19, 2023",
    "managingAgency": "US Forest Service",
    "burnType": "Underburn",
    "acres": 44,
    "status": "Approved",
    "approvedOn": "Thu Oct 19, 2023 @ 7:39 AM",
    "coordinates": [
      -120.5886111,
      39.05833333
    ]
  },
  {
    "name": "Unit 6",
    "date": "October 19, 2023",
    "managingAgency": "US Forest Service",
    "burnType": "Underburn",
    "acres": 58,
    "status": "Approved",
    "approvedOn": "Thu Oct 19, 2023 @ 7:39 AM",
    "coordinates": [
      -120.5936111,
      39.0575
    ]
  },
  {
    "name": "Usal Redwood SMP 22-55 Piles",
    "date": "October 19, 2023",
    "managingAgency": "Private Landowner",
    "burnType": "Hand Pile",
    "acres": 6,
    "status": "Approved",
    "approvedOn": "Mon Oct 16, 2023 @ 5:26 PM",
    "coordinates": [
      -123.93839272494789,
      39.928070342685004
    ]
  },
  {
    "name": "West Shore",
    "date": "October 19, 2023",
    "managingAgency": "US Forest Service",
    "burnType": "Underburn",
    "acres": 100,
    "status": "Approved",
    "approvedOn": "Wed Oct 18, 2023 @ 8:23 AM",
    "coordinates": [
      -121.1876,
      40.2017
    ]
  },
  {
    "name": "Yosemite Valley (Unit: YV-10)",
    "date": "October 19, 2023",
    "managingAgency": "National Park Service",
    "burnType": "Underburn",
    "acres": 44,
    "status": "Approved",
    "approvedOn": "Tue Oct 17, 2023 @ 11:13 AM",
    "coordinates": [
      -119.6277745379879,
      37.72315638569676
    ]
  }
]