[
  {
    "name": " Tribal Alliance SMP 23-18 Broadcast",
    "date": "October 20, 2023",
    "managingAgency": "Private Landowner",
    "burnType": "Underburn",
    "acres": 7,
    "status": "Approved",
    "approvedOn": "Fri Oct 20, 2023 @ 2:32 PM",
    "coordinates": [
      -123.095147,
      39.333719
    ]
  },
  {
    "name": "013",
    "date": "October 20, 2023",
    "managingAgency": "US Forest Service",
    "burnType": "Underburn",
    "acres": 5,
    "status": "Active",
    "approvedOn": "Fri Oct 13, 2023 @ 2:01 PM",
    "coordinates": [
      -120.725065,
      39.89024
    ]
  },
  {
    "name": "2023-Merritt 2023",
    "date": "October 20, 2023",
    "managingAgency": "CAL FIRE",
    "burnType": "Underburn",
    "acres": 2000,
    "status": "Approved",
    "approvedOn": "Thu Oct 19, 2023 @ 3:00 PM",
    "coordinates": [
      -118.858901,
      36.192934
    ]
  },
  {
    "name": "2023-Segments 7,8,9,10,11",
    "date": "October 20, 2023",
    "managingAgency": "US Forest Service",
    "burnType": "Underburn",
    "acres": 450,
    "status": "Approved",
    "approvedOn": "Thu Oct 19, 2023 @ 2:58 PM",
    "coordinates": [
      -118.975651,
      36.704991
    ]
  },
  {
    "name": "3",
    "date": "October 20, 2023",
    "managingAgency": "US Forest Service",
    "burnType": "Underburn",
    "acres": 809,
    "status": "Patrol",
    "approvedOn": "Fri Sep 29, 2023 @ 2:12 PM",
    "coordinates": [
      -120.069755,
      38.221222
    ]
  },
  {
    "name": "4",
    "date": "October 20, 2023",
    "managingAgency": "US Forest Service",
    "burnType": "Underburn",
    "acres": 330,
    "status": "Approved",
    "approvedOn": "Fri Oct 20, 2023 @ 8:55 AM",
    "coordinates": [
      -120.092858,
      38.198653
    ]
  },
  {
    "name": "5",
    "date": "October 20, 2023",
    "managingAgency": "US Forest Service",
    "burnType": "Underburn",
    "acres": 144,
    "status": "Patrol",
    "approvedOn": "Tue Aug 01, 2023 @ 11:42 AM",
    "coordinates": [
      -120.069259,
      38.26091
    ]
  },
  {
    "name": "741",
    "date": "October 20, 2023",
    "managingAgency": "US Forest Service",
    "burnType": "Underburn",
    "acres": 22,
    "status": "Approved",
    "approvedOn": "Thu Oct 19, 2023 @ 4:21 PM",
    "coordinates": [
      -120.5886,
      38.7171
    ]
  },
  {
    "name": "742",
    "date": "October 20, 2023",
    "managingAgency": "US Forest Service",
    "burnType": "Underburn",
    "acres": 6,
    "status": "Approved",
    "approvedOn": "Thu Oct 19, 2023 @ 4:21 PM",
    "coordinates": [
      -120.5929,
      38.7125
    ]
  },
  {
    "name": "Amex 9-26-23",
    "date": "October 20, 2023",
    "managingAgency": "CAL FIRE",
    "burnType": "Underburn",
    "acres": 40,
    "status": "Approved",
    "approvedOn": "Thu Oct 19, 2023 @ 8:49 AM",
    "coordinates": [
      -121.74142227010203,
      40.66308822518685
    ]
  },
  {
    "name": "Backbone Unit B",
    "date": "October 20, 2023",
    "managingAgency": "US Forest Service",
    "burnType": "Underburn",
    "acres": 300,
    "status": "Approved",
    "approvedOn": "Thu Oct 19, 2023 @ 8:47 AM",
    "coordinates": [
      -122.43585152103637,
      40.824217404302104
    ]
  },
  {
    "name": "Bengard Plot 2",
    "date": "October 20, 2023",
    "managingAgency": "CAL FIRE",
    "burnType": "Underburn",
    "acres": 84.26,
    "status": "Active",
    "approvedOn": "Fri Oct 20, 2023 @ 12:03 PM",
    "coordinates": [
      -121.5519987,
      36.6879611
    ]
  },
  {
    "name": "Butte",
    "date": "October 20, 2023",
    "managingAgency": "US Forest Service",
    "burnType": "Unknown",
    "acres": 100,
    "status": "Approved",
    "approvedOn": "Wed Oct 18, 2023 @ 6:29 PM",
    "coordinates": [
      -122.195,
      41.83
    ]
  },
  {
    "name": "CAVE 23",
    "date": "October 20, 2023",
    "managingAgency": "CAL FIRE",
    "burnType": "Unknown",
    "acres": 100,
    "status": "Approved",
    "approvedOn": "Tue Oct 17, 2023 @ 1:07 PM",
    "coordinates": [
      -121.75283673768747,
      39.87427618668016
    ]
  },
  {
    "name": "East McNears Unit",
    "date": "October 20, 2023",
    "managingAgency": "California State Parks",
    "burnType": "Underburn",
    "acres": 6,
    "status": "Approved",
    "approvedOn": "Fri Oct 20, 2023 @ 5:48 AM",
    "coordinates": [
      -122.473708,
      38.001482
    ]
  },
  {
    "name": "Eastside Lassen Co.",
    "date": "October 20, 2023",
    "managingAgency": "US Forest Service",
    "burnType": "Underburn",
    "acres": 322.7,
    "status": "Approved",
    "approvedOn": "Thu Oct 19, 2023 @ 3:19 PM",
    "coordinates": [
      -121.2633,
      41.04083
    ]
  },
  {
    "name": "Elk Unit C",
    "date": "October 20, 2023",
    "managingAgency": "US Forest Service",
    "burnType": "Underburn",
    "acres": 1061,
    "status": "Active",
    "approvedOn": "Thu Oct 19, 2023 @ 5:57 PM",
    "coordinates": [
      -121.9874,
      41.363593
    ]
  },
  {
    "name": "Elk Unit G",
    "date": "October 20, 2023",
    "managingAgency": "US Forest Service",
    "burnType": "Underburn",
    "acres": 174,
    "status": "Active",
    "approvedOn": "Thu Oct 19, 2023 @ 5:58 PM",
    "coordinates": [
      -121.965688,
      41.352595
    ]
  },
  {
    "name": "Hopland UC SMP 22-45 Broadcast",
    "date": "October 20, 2023",
    "managingAgency": "Private Landowner",
    "burnType": "Underburn",
    "acres": 200,
    "status": "Approved",
    "approvedOn": "Mon Oct 16, 2023 @ 5:30 PM",
    "coordinates": [
      -123.06692295317848,
      39.0003822218488
    ]
  },
  {
    "name": "North Shore",
    "date": "October 20, 2023",
    "managingAgency": "CAL FIRE",
    "burnType": "Underburn",
    "acres": 8,
    "status": "Active",
    "approvedOn": "Tue Oct 17, 2023 @ 1:30 PM",
    "coordinates": [
      -122.3341,
      41.2923
    ]
  },
  {
    "name": "PML VMP 2023",
    "date": "October 20, 2023",
    "managingAgency": "CAL FIRE",
    "burnType": "Underburn",
    "acres": 50,
    "status": "Approved",
    "approvedOn": "Wed Oct 18, 2023 @ 3:31 PM",
    "coordinates": [
      -120.2121444461446,
      37.867347973082495
    ]
  },
  {
    "name": "Pioneer Rx Burn",
    "date": "October 20, 2023",
    "managingAgency": "California State Parks",
    "burnType": "Underburn",
    "acres": 19,
    "status": "Approved",
    "approvedOn": "Wed Oct 18, 2023 @ 10:17 AM",
    "coordinates": [
      -120.30123,
      38.28027
    ]
  },
  {
    "name": "UC Hopland SMP 17- 27 Broadcast",
    "date": "October 20, 2023",
    "managingAgency": "Private Landowner",
    "burnType": "Underburn",
    "acres": 200,
    "status": "Approved",
    "approvedOn": "Thu Oct 19, 2023 @ 8:18 PM",
    "coordinates": [
      -123.08624308307957,
      39.00117409228301
    ]
  },
  {
    "name": "Unit 1",
    "date": "October 20, 2023",
    "managingAgency": "CAL FIRE",
    "burnType": "Underburn",
    "acres": 25,
    "status": "Patrol",
    "approvedOn": "Thu Oct 19, 2023 @ 3:42 PM",
    "coordinates": [
      -121.9249044,
      40.343007
    ]
  },
  {
    "name": "Unit 3- Broadcast",
    "date": "October 20, 2023",
    "managingAgency": "CAL FIRE",
    "burnType": "Underburn",
    "acres": 5.9,
    "status": "Approved",
    "approvedOn": "Thu Oct 19, 2023 @ 6:36 PM",
    "coordinates": [
      -120.97053,
      39.06707
    ]
  },
  {
    "name": "Unit 4",
    "date": "October 20, 2023",
    "managingAgency": "Private Landowner",
    "burnType": "Underburn",
    "acres": 8.3,
    "status": "Approved",
    "approvedOn": "Wed Oct 18, 2023 @ 9:18 AM",
    "coordinates": [
      -123.25628192861363,
      38.663285014602515
    ]
  },
  {
    "name": "Unit 4 - Broadcast",
    "date": "October 20, 2023",
    "managingAgency": "CAL FIRE",
    "burnType": "Underburn",
    "acres": 12.11,
    "status": "Approved",
    "approvedOn": "Thu Oct 19, 2023 @ 6:36 PM",
    "coordinates": [
      -120.97094,
      39.0658
    ]
  },
  {
    "name": "Unit 5 - Broadcast",
    "date": "October 20, 2023",
    "managingAgency": "CAL FIRE",
    "burnType": "Underburn",
    "acres": 4.4,
    "status": "Approved",
    "approvedOn": "Thu Oct 19, 2023 @ 6:36 PM",
    "coordinates": [
      -120.97193,
      39.06474
    ]
  },
  {
    "name": "Unit A",
    "date": "October 20, 2023",
    "managingAgency": "National Park Service",
    "burnType": "Underburn",
    "acres": 5.2,
    "status": "Approved",
    "approvedOn": "Fri Oct 20, 2023 @ 5:49 AM",
    "coordinates": [
      -122.9635,
      38.0946
    ]
  },
  {
    "name": "Unit B",
    "date": "October 20, 2023",
    "managingAgency": "National Park Service",
    "burnType": "Underburn",
    "acres": 6,
    "status": "Approved",
    "approvedOn": "Fri Oct 20, 2023 @ 5:48 AM",
    "coordinates": [
      -122.9647,
      38.0933
    ]
  },
  {
    "name": "WS1",
    "date": "October 20, 2023",
    "managingAgency": "US Forest Service",
    "burnType": "Underburn",
    "acres": 39,
    "status": "Approved",
    "approvedOn": "Fri Oct 20, 2023 @ 8:55 AM",
    "coordinates": [
      -120.275,
      38.38528
    ]
  },
  {
    "name": "WS2",
    "date": "October 20, 2023",
    "managingAgency": "US Forest Service",
    "burnType": "Underburn",
    "acres": 31,
    "status": "Approved",
    "approvedOn": "Fri Oct 20, 2023 @ 8:55 AM",
    "coordinates": [
      -120.23639,
      38.41472
    ]
  },
  {
    "name": "WS3",
    "date": "October 20, 2023",
    "managingAgency": "US Forest Service",
    "burnType": "Underburn",
    "acres": 78,
    "status": "Approved",
    "approvedOn": "Fri Oct 20, 2023 @ 8:55 AM",
    "coordinates": [
      -120.17944,
      38.20611
    ]
  },
  {
    "name": "WS4",
    "date": "October 20, 2023",
    "managingAgency": "US Forest Service",
    "burnType": "Underburn",
    "acres": 33,
    "status": "Approved",
    "approvedOn": "Fri Oct 20, 2023 @ 8:55 AM",
    "coordinates": [
      -120.09278,
      38.25111
    ]
  },
  {
    "name": "West Shore",
    "date": "October 20, 2023",
    "managingAgency": "US Forest Service",
    "burnType": "Underburn",
    "acres": 110,
    "status": "Approved",
    "approvedOn": "Thu Oct 19, 2023 @ 8:00 AM",
    "coordinates": [
      -121.1876,
      40.2017
    ]
  }
]