[
  {
    "name": "2023-Dinkey Properties Piles",
    "date": "December 10, 2023",
    "managingAgency": "Southern California Edison",
    "burnType": "Hand Pile",
    "acres": 50,
    "status": "Approved",
    "approvedOn": "Sat Dec 09, 2023 @ 2:53 PM",
    "coordinates": [
      -119.1,
      37
    ]
  },
  {
    "name": "2023-Shaver Lake Understory",
    "date": "December 10, 2023",
    "managingAgency": "Southern California Edison",
    "burnType": "Underburn",
    "acres": 400,
    "status": "Approved",
    "approvedOn": "Sat Dec 09, 2023 @ 2:54 PM",
    "coordinates": [
      -119.288965,
      37.107236
    ]
  },
  {
    "name": "Bower Gualala TownSMP 22-57 Piles",
    "date": "December 10, 2023",
    "managingAgency": "Private Landowner",
    "burnType": "Machine Pile",
    "acres": 1,
    "status": "Approved",
    "approvedOn": "Fri Dec 08, 2023 @ 9:52 AM",
    "coordinates": [
      -123.526119,
      38.770247
    ]
  },
  {
    "name": "Caldor ",
    "date": "December 10, 2023",
    "managingAgency": "California Forestry and Excavation",
    "burnType": "Machine Pile",
    "acres": 5,
    "status": "Approved",
    "approvedOn": "Fri Dec 08, 2023 @ 2:59 PM",
    "coordinates": [
      -120.50829193460171,
      38.63545064366902
    ]
  },
  {
    "name": "Cascade 132",
    "date": "December 10, 2023",
    "managingAgency": "US Forest Service",
    "burnType": "Hand Pile",
    "acres": 20,
    "status": "Approved",
    "approvedOn": "Fri Dec 08, 2023 @ 2:59 PM",
    "coordinates": [
      -120.078122,
      38.920959
    ]
  },
  {
    "name": "H-2 ",
    "date": "December 10, 2023",
    "managingAgency": "Firestorm Wildland Fire Suppression Inc",
    "burnType": "Hand Pile",
    "acres": 1,
    "status": "Approved",
    "approvedOn": "Fri Dec 08, 2023 @ 8:17 AM",
    "coordinates": [
      -122.806278,
      38.717058
    ]
  },
  {
    "name": "Lily Lake 11",
    "date": "December 10, 2023",
    "managingAgency": "US Forest Service",
    "burnType": "Hand Pile",
    "acres": 19,
    "status": "Approved",
    "approvedOn": "Fri Dec 08, 2023 @ 2:59 PM",
    "coordinates": [
      -119.962695,
      38.888735
    ]
  },
  {
    "name": "Unit 1",
    "date": "December 10, 2023",
    "managingAgency": "CAL FIRE",
    "burnType": "Hand Pile",
    "acres": 5,
    "status": "Approved",
    "approvedOn": "Tue Dec 05, 2023 @ 8:45 AM",
    "coordinates": [
      -122.5286,
      39.5944
    ]
  },
  {
    "name": "Wofford Heights- Wofford Heights Park",
    "date": "December 10, 2023",
    "managingAgency": "US Forest Service",
    "burnType": "Hand Pile",
    "acres": 10,
    "status": "Approved",
    "approvedOn": "Thu Dec 07, 2023 @ 7:29 AM",
    "coordinates": [
      -118.44931355803422,
      35.70539819873306
    ]
  },
  {
    "name": "unit 6",
    "date": "December 10, 2023",
    "managingAgency": "Bureau of Land Management",
    "burnType": "Hand Pile",
    "acres": 15,
    "status": "Approved",
    "approvedOn": "Fri Dec 08, 2023 @ 9:17 AM",
    "coordinates": [
      -122.89892627672796,
      40.598188874039764
    ]
  }
]