[
  {
    "name": "1A",
    "date": "November 22, 2023",
    "managingAgency": "CAL FIRE",
    "burnType": "Hand Pile",
    "acres": 1,
    "status": "Approved",
    "approvedOn": "Wed Nov 22, 2023 @ 7:30 AM",
    "coordinates": [
      -121.91856369190937,
      40.34087201800909
    ]
  },
  {
    "name": "A1",
    "date": "November 22, 2023",
    "managingAgency": "Colusa County Resource Conservation District",
    "burnType": "Machine Pile",
    "acres": 5,
    "status": "Approved",
    "approvedOn": "Tue Nov 21, 2023 @ 11:16 AM",
    "coordinates": [
      -122.64734,
      39.23419
    ]
  },
  {
    "name": "Base",
    "date": "November 22, 2023",
    "managingAgency": "CAL FIRE",
    "burnType": "Hand Pile",
    "acres": 0.2,
    "status": "Approved",
    "approvedOn": "Mon Nov 20, 2023 @ 9:46 AM",
    "coordinates": [
      -122.71866363149239,
      38.8336752020556
    ]
  },
  {
    "name": "Block 1",
    "date": "November 22, 2023",
    "managingAgency": "Private Landowner",
    "burnType": "Hand Pile",
    "acres": 10,
    "status": "Approved",
    "approvedOn": "Wed Nov 22, 2023 @ 5:49 AM",
    "coordinates": [
      -122.690576,
      38.526463
    ]
  },
  {
    "name": "Mosquito Piles 2023",
    "date": "November 22, 2023",
    "managingAgency": "Siller Brothers Inc",
    "burnType": "Machine Pile",
    "acres": 5,
    "status": "Patrol",
    "approvedOn": "Tue Nov 21, 2023 @ 7:55 AM",
    "coordinates": [
      -120.7053776,
      38.928537
    ]
  },
  {
    "name": "Piles",
    "date": "November 22, 2023",
    "managingAgency": "CAL FIRE",
    "burnType": "Unknown",
    "acres": 1,
    "status": "Approved",
    "approvedOn": "Tue Nov 21, 2023 @ 8:27 AM",
    "coordinates": [
      -121.64850039462992,
      39.884605610988274
    ]
  },
  {
    "name": "Shiloh 2021 Piles",
    "date": "November 22, 2023",
    "managingAgency": "CAL FIRE",
    "burnType": "Machine Pile",
    "acres": 1,
    "status": "Approved",
    "approvedOn": "Wed Nov 08, 2023 @ 7:02 AM",
    "coordinates": [
      -120.17228,
      38.068191
    ]
  },
  {
    "name": "Spud",
    "date": "November 22, 2023",
    "managingAgency": "Collins Pine Company",
    "burnType": "Hand Pile",
    "acres": 4,
    "status": "Approved",
    "approvedOn": "Wed Nov 22, 2023 @ 7:30 AM",
    "coordinates": [
      -121.501175,
      40.303601
    ]
  },
  {
    "name": "Vineyard Trail Piles West",
    "date": "November 22, 2023",
    "managingAgency": "California State Parks",
    "burnType": "Hand Pile",
    "acres": 75,
    "status": "Patrol",
    "approvedOn": "Tue Nov 21, 2023 @ 5:27 AM",
    "coordinates": [
      -122.535185,
      38.547904
    ]
  },
  {
    "name": "Wagon Trail - Unit 2",
    "date": "November 22, 2023",
    "managingAgency": "CAL FIRE",
    "burnType": "Hand Pile",
    "acres": 0.25,
    "status": "Approved",
    "approvedOn": "Tue Nov 21, 2023 @ 2:54 PM",
    "coordinates": [
      -120.93736,
      39.09426
    ]
  }
]