[
  {
    "name": "2023-Dinkey Properties Piles",
    "date": "December 5, 2023",
    "managingAgency": "Southern California Edison",
    "burnType": "Hand Pile",
    "acres": 50,
    "status": "Approved",
    "approvedOn": "Mon Dec 04, 2023 @ 1:50 PM",
    "coordinates": [
      -119.1,
      37
    ]
  },
  {
    "name": "2023-Moffett / Mountain Fire",
    "date": "December 5, 2023",
    "managingAgency": "FWS Forestry LLC ",
    "burnType": "Unknown",
    "acres": 320,
    "status": "Active",
    "approvedOn": "Mon Dec 04, 2023 @ 4:14 PM",
    "coordinates": [
      -122.682796,
      41.500814
    ]
  },
  {
    "name": "2023-Shaver Lake Understory",
    "date": "December 5, 2023",
    "managingAgency": "Southern California Edison",
    "burnType": "Underburn",
    "acres": 400,
    "status": "Approved",
    "approvedOn": "Mon Dec 04, 2023 @ 1:50 PM",
    "coordinates": [
      -119.288965,
      37.107236
    ]
  },
  {
    "name": "2023-Swanson Timber Sale",
    "date": "December 5, 2023",
    "managingAgency": "US Forest Service",
    "burnType": "Hand Pile",
    "acres": 2063,
    "status": "Approved",
    "approvedOn": "Mon Dec 04, 2023 @ 3:14 PM",
    "coordinates": [
      -119.279216,
      37.093608
    ]
  },
  {
    "name": "217-75.1",
    "date": "December 5, 2023",
    "managingAgency": "US Forest Service",
    "burnType": "Hand Pile",
    "acres": 30,
    "status": "Active",
    "approvedOn": "Mon Dec 04, 2023 @ 4:16 PM",
    "coordinates": [
      -123.4576,
      41.8707
    ]
  },
  {
    "name": "Audubon Canyon Ranch - BP - Piles",
    "date": "December 5, 2023",
    "managingAgency": "Audubon Canyon Ranch",
    "burnType": "Hand Pile",
    "acres": 30,
    "status": "Approved",
    "approvedOn": "Tue Dec 05, 2023 @ 5:09 AM",
    "coordinates": [
      -122.501944,
      38.367222
    ]
  },
  {
    "name": "BCCER Burn units",
    "date": "December 5, 2023",
    "managingAgency": "CSU Chico Research Foundation",
    "burnType": "Unknown",
    "acres": 0.25,
    "status": "Approved",
    "approvedOn": "Tue Dec 05, 2023 @ 7:30 AM",
    "coordinates": [
      -121.7020157634645,
      39.84554310755987
    ]
  },
  {
    "name": "Barker McBride",
    "date": "December 5, 2023",
    "managingAgency": "Wyntoon Timberlands LLC",
    "burnType": "Landing Pile",
    "acres": 100,
    "status": "Approved",
    "approvedOn": "Mon Dec 04, 2023 @ 4:06 PM",
    "coordinates": [
      -122.092006,
      41.185618
    ]
  },
  {
    "name": "Black Mountain",
    "date": "December 5, 2023",
    "managingAgency": "US Forest Service",
    "burnType": "Hand Pile",
    "acres": 12,
    "status": "Approved",
    "approvedOn": "Mon Dec 04, 2023 @ 4:09 PM",
    "coordinates": [
      -121.476413,
      41.504146
    ]
  },
  {
    "name": "Boonedock Harvest",
    "date": "December 5, 2023",
    "managingAgency": "Placer County Water Agency",
    "burnType": "Machine Pile",
    "acres": 10,
    "status": "Approved",
    "approvedOn": "Tue Dec 05, 2023 @ 7:28 AM",
    "coordinates": [
      -121.767413,
      40.23895
    ]
  },
  {
    "name": "Brush",
    "date": "December 5, 2023",
    "managingAgency": "CAL FIRE",
    "burnType": "Hand Pile",
    "acres": 0.5,
    "status": "Approved",
    "approvedOn": "Mon Nov 27, 2023 @ 10:14 AM",
    "coordinates": [
      -121.747414,
      37.010155
    ]
  },
  {
    "name": "Burn Block C, Site 3",
    "date": "December 5, 2023",
    "managingAgency": "Marin Municipal Water District ",
    "burnType": "Hand Pile",
    "acres": 5,
    "status": "Approved",
    "approvedOn": "Tue Dec 05, 2023 @ 5:09 AM",
    "coordinates": [
      -122.595014,
      37.954562
    ]
  },
  {
    "name": "Carbonizer",
    "date": "December 5, 2023",
    "managingAgency": "Earth Foundries, Inc.",
    "burnType": "Machine Pile",
    "acres": 16,
    "status": "Approved",
    "approvedOn": "Tue Dec 05, 2023 @ 5:06 AM",
    "coordinates": [
      -122.102868,
      37.74467
    ]
  },
  {
    "name": "Carbonizer",
    "date": "December 5, 2023",
    "managingAgency": "Earth Foundries, Inc.",
    "burnType": "Machine Pile",
    "acres": 8,
    "status": "Approved",
    "approvedOn": "Mon Dec 04, 2023 @ 2:31 PM",
    "coordinates": [
      -122.102868,
      37.74467
    ]
  },
  {
    "name": "City Creek ",
    "date": "December 5, 2023",
    "managingAgency": "US Forest Service",
    "burnType": "Hand Pile",
    "acres": 53,
    "status": "Approved",
    "approvedOn": "Mon Dec 04, 2023 @ 1:44 PM",
    "coordinates": [
      -117.181077003479,
      34.185642353821216
    ]
  },
  {
    "name": "ClaimJumper",
    "date": "December 5, 2023",
    "managingAgency": "US Forest Service",
    "burnType": "Machine Pile",
    "acres": 180,
    "status": "Approved",
    "approvedOn": "Tue Dec 05, 2023 @ 8:00 AM",
    "coordinates": [
      -121,
      null
    ]
  },
  {
    "name": "Desert Cold Springs Unit 320-20",
    "date": "December 5, 2023",
    "managingAgency": "US Forest Service",
    "burnType": "Machine Pile",
    "acres": 40,
    "status": "Approved",
    "approvedOn": "Mon Dec 04, 2023 @ 3:16 PM",
    "coordinates": [
      -120.472223,
      38.998692
    ]
  },
  {
    "name": "EFS Leap ",
    "date": "December 5, 2023",
    "managingAgency": "US Forest Service",
    "burnType": "Hand Pile",
    "acres": 50,
    "status": "Approved",
    "approvedOn": "Mon Dec 04, 2023 @ 4:25 PM",
    "coordinates": [
      -122.815,
      41.64306
    ]
  },
  {
    "name": "EFS Scott Mountain PCT",
    "date": "December 5, 2023",
    "managingAgency": "US Forest Service",
    "burnType": "Hand Pile",
    "acres": 50,
    "status": "Approved",
    "approvedOn": "Mon Dec 04, 2023 @ 4:25 PM",
    "coordinates": [
      -122.77306,
      41.44944
    ]
  },
  {
    "name": "French Hill Area 2(l)",
    "date": "December 5, 2023",
    "managingAgency": "US Forest Service",
    "burnType": "Unknown",
    "acres": 10,
    "status": "Approved",
    "approvedOn": "Mon Dec 04, 2023 @ 1:05 PM",
    "coordinates": [
      -123.9891667,
      41.82583333
    ]
  },
  {
    "name": "Gateway",
    "date": "December 5, 2023",
    "managingAgency": "US Forest Service",
    "burnType": "Hand Pile",
    "acres": 1,
    "status": "Active",
    "approvedOn": "Fri Dec 01, 2023 @ 1:27 PM",
    "coordinates": [
      -122.2555,
      41.3264
    ]
  },
  {
    "name": "Grizzly Flat Fuel Break",
    "date": "December 5, 2023",
    "managingAgency": "US Forest Service",
    "burnType": "Machine Pile",
    "acres": 200,
    "status": "Approved",
    "approvedOn": "Mon Dec 04, 2023 @ 4:44 PM",
    "coordinates": [
      -120.408045,
      38.650004
    ]
  },
  {
    "name": "H-2 ",
    "date": "December 5, 2023",
    "managingAgency": "Firestorm Wildland Fire Suppression Inc",
    "burnType": "Hand Pile",
    "acres": 1,
    "status": "Approved",
    "approvedOn": "Mon Dec 04, 2023 @ 3:49 PM",
    "coordinates": [
      -122.806278,
      38.717058
    ]
  },
  {
    "name": "H-2 ",
    "date": "December 5, 2023",
    "managingAgency": "Firestorm Wildland Fire Suppression Inc",
    "burnType": "Hand Pile",
    "acres": 1,
    "status": "Active",
    "approvedOn": "Mon Dec 04, 2023 @ 3:49 PM",
    "coordinates": [
      -122.806278,
      38.717058
    ]
  },
  {
    "name": "Hensley Tree Farm",
    "date": "December 5, 2023",
    "managingAgency": "Private Landowner",
    "burnType": "Unknown",
    "acres": 1.5,
    "status": "Approved",
    "approvedOn": "Tue Dec 05, 2023 @ 8:16 AM",
    "coordinates": [
      -121.317011,
      39.418971
    ]
  },
  {
    "name": "Huckleberry",
    "date": "December 5, 2023",
    "managingAgency": "Wyntoon Timberlands LLC",
    "burnType": "Landing Pile",
    "acres": 100,
    "status": "Approved",
    "approvedOn": "Mon Dec 04, 2023 @ 4:06 PM",
    "coordinates": [
      -122.111587,
      41.213699
    ]
  },
  {
    "name": "Jigsaw PCT Unit 4",
    "date": "December 5, 2023",
    "managingAgency": "US Forest Service",
    "burnType": "Hand Pile",
    "acres": 50,
    "status": "Approved",
    "approvedOn": "Mon Dec 04, 2023 @ 4:15 PM",
    "coordinates": [
      -122.7643,
      41.7594
    ]
  },
  {
    "name": "Juniper Lake Road - Plumas",
    "date": "December 5, 2023",
    "managingAgency": "National Park Service",
    "burnType": "Machine Pile",
    "acres": 23,
    "status": "Approved",
    "approvedOn": "Tue Dec 05, 2023 @ 8:38 AM",
    "coordinates": [
      -121.2784823187259,
      40.43803710327541
    ]
  },
  {
    "name": "Lava Hand Piles",
    "date": "December 5, 2023",
    "managingAgency": "US Forest Service",
    "burnType": "Hand Pile",
    "acres": 25,
    "status": "Approved",
    "approvedOn": "Mon Dec 04, 2023 @ 4:09 PM",
    "coordinates": [
      -121.46842,
      41.475236
    ]
  },
  {
    "name": "Letts Lake",
    "date": "December 5, 2023",
    "managingAgency": "US Forest Service",
    "burnType": "Hand Pile",
    "acres": 15,
    "status": "Approved",
    "approvedOn": "Mon Dec 04, 2023 @ 11:11 AM",
    "coordinates": [
      -122.70872822789052,
      39.30311391933492
    ]
  },
  {
    "name": "Loafer Creek",
    "date": "December 5, 2023",
    "managingAgency": "CAL FIRE",
    "burnType": "Underburn",
    "acres": 2,
    "status": "Approved",
    "approvedOn": "Tue Dec 05, 2023 @ 7:30 AM",
    "coordinates": [
      -121.446991,
      39.524965
    ]
  },
  {
    "name": "Long Shanks 14",
    "date": "December 5, 2023",
    "managingAgency": "US Forest Service",
    "burnType": "Machine Pile",
    "acres": 10,
    "status": "Approved",
    "approvedOn": "Mon Dec 04, 2023 @ 3:16 PM",
    "coordinates": [
      -120.50700764539657,
      38.96223643255272
    ]
  },
  {
    "name": "Long Shanks 15-19",
    "date": "December 5, 2023",
    "managingAgency": "US Forest Service",
    "burnType": "Machine Pile",
    "acres": 70,
    "status": "Approved",
    "approvedOn": "Mon Dec 04, 2023 @ 3:15 PM",
    "coordinates": [
      -120.5304836340273,
      38.978978156311946
    ]
  },
  {
    "name": "Long Shanks 43",
    "date": "December 5, 2023",
    "managingAgency": "US Forest Service",
    "burnType": "Machine Pile",
    "acres": 62,
    "status": "Approved",
    "approvedOn": "Mon Dec 04, 2023 @ 3:16 PM",
    "coordinates": [
      -120.53945110637744,
      38.94248367007401
    ]
  },
  {
    "name": "Longshanks Unit 42",
    "date": "December 5, 2023",
    "managingAgency": "US Forest Service",
    "burnType": "Machine Pile",
    "acres": 29,
    "status": "Approved",
    "approvedOn": "Mon Dec 04, 2023 @ 3:16 PM",
    "coordinates": [
      -120.491782,
      39.006571
    ]
  },
  {
    "name": "Lost Spider",
    "date": "December 5, 2023",
    "managingAgency": "Wyntoon Timberlands LLC",
    "burnType": "Landing Pile",
    "acres": 100,
    "status": "Approved",
    "approvedOn": "Mon Dec 04, 2023 @ 4:07 PM",
    "coordinates": [
      -122.096212,
      41.174163
    ]
  },
  {
    "name": "Lower McCloud",
    "date": "December 5, 2023",
    "managingAgency": "US Forest Service",
    "burnType": "Hand Pile",
    "acres": 10,
    "status": "Active",
    "approvedOn": "Mon Dec 04, 2023 @ 1:32 PM",
    "coordinates": [
      -122.10370951559591,
      41.10821635229363
    ]
  },
  {
    "name": "Mount Shasta Transfer Station",
    "date": "December 5, 2023",
    "managingAgency": "CAL FIRE",
    "burnType": "Unknown",
    "acres": 3,
    "status": "Active",
    "approvedOn": "Mon Dec 04, 2023 @ 11:28 AM",
    "coordinates": [
      -122.343,
      41.354
    ]
  },
  {
    "name": "North Miller Ridge",
    "date": "December 5, 2023",
    "managingAgency": "Mendocino Redwood Company ",
    "burnType": "Underburn",
    "acres": 15,
    "status": "Approved",
    "approvedOn": "Mon Dec 04, 2023 @ 12:50 PM",
    "coordinates": [
      -123.346018,
      38.672493
    ]
  },
  {
    "name": "North Miller Ridge ",
    "date": "December 5, 2023",
    "managingAgency": "Mendocino Redwood Company ",
    "burnType": "Machine Pile",
    "acres": 30,
    "status": "Approved",
    "approvedOn": "Mon Dec 04, 2023 @ 12:50 PM",
    "coordinates": [
      -123.346018,
      38.672493
    ]
  },
  {
    "name": "PML VMP Winter Piles ",
    "date": "December 5, 2023",
    "managingAgency": "CAL FIRE",
    "burnType": "Hand Pile",
    "acres": 1,
    "status": "Approved",
    "approvedOn": "Tue Dec 05, 2023 @ 7:14 AM",
    "coordinates": [
      -120.220074,
      37.866465
    ]
  },
  {
    "name": "Phase 2",
    "date": "December 5, 2023",
    "managingAgency": "Higgins Ridge LLC",
    "burnType": "Machine Pile",
    "acres": 0.75,
    "status": "Approved",
    "approvedOn": "Tue Dec 05, 2023 @ 7:30 AM",
    "coordinates": [
      -121.688799,
      39.878513
    ]
  },
  {
    "name": "Round Valley Juniper Reduction",
    "date": "December 5, 2023",
    "managingAgency": "US Forest Service",
    "burnType": "Machine Pile",
    "acres": 200,
    "status": "Approved",
    "approvedOn": "Mon Dec 04, 2023 @ 4:26 PM",
    "coordinates": [
      -121.9643,
      41.7373
    ]
  },
  {
    "name": "SV - Pool Hall Woods Pile Burn",
    "date": "December 5, 2023",
    "managingAgency": "Sonoma County Regional Parks ",
    "burnType": "Hand Pile",
    "acres": 50,
    "status": "Approved",
    "approvedOn": "Tue Dec 05, 2023 @ 5:09 AM",
    "coordinates": [
      -122.505516,
      38.36551
    ]
  },
  {
    "name": "Sac Canyon Burn Piles",
    "date": "December 5, 2023",
    "managingAgency": "Sierra Pacific Industries",
    "burnType": "Machine Pile",
    "acres": 33,
    "status": "Approved",
    "approvedOn": "Tue Dec 05, 2023 @ 8:15 AM",
    "coordinates": [
      -122.314492,
      41.093451
    ]
  },
  {
    "name": "Sac Canyon Burn Piles",
    "date": "December 5, 2023",
    "managingAgency": "Sierra Pacific Industries",
    "burnType": "Machine Pile",
    "acres": 15,
    "status": "Active",
    "approvedOn": "Mon Dec 04, 2023 @ 8:12 AM",
    "coordinates": [
      -122.314492,
      41.093451
    ]
  },
  {
    "name": "Shasta Dam",
    "date": "December 5, 2023",
    "managingAgency": "California Great Basin, Northern California Area Office",
    "burnType": "Hand Pile",
    "acres": 0.5,
    "status": "Approved",
    "approvedOn": "Mon Dec 04, 2023 @ 9:54 AM",
    "coordinates": [
      -122.41839936252201,
      40.71568229588444
    ]
  },
  {
    "name": "Shiloh Piles 2023",
    "date": "December 5, 2023",
    "managingAgency": "CAL FIRE",
    "burnType": "Hand Pile",
    "acres": 5,
    "status": "Approved",
    "approvedOn": "Mon Dec 04, 2023 @ 6:59 AM",
    "coordinates": [
      -120.16955320205987,
      38.071258433754544
    ]
  },
  {
    "name": "Spud",
    "date": "December 5, 2023",
    "managingAgency": "Collins Pine Company",
    "burnType": "Hand Pile",
    "acres": 4,
    "status": "Approved",
    "approvedOn": "Mon Dec 04, 2023 @ 4:46 PM",
    "coordinates": [
      -121.501175,
      40.303601
    ]
  },
  {
    "name": "Stoney Breaker",
    "date": "December 5, 2023",
    "managingAgency": "Bureau of Land Management",
    "burnType": "Hand Pile",
    "acres": 60,
    "status": "Active",
    "approvedOn": "Tue Dec 05, 2023 @ 7:20 AM",
    "coordinates": [
      -121.0462,
      41.1017
    ]
  },
  {
    "name": "Storrie PAC Unit 5",
    "date": "December 5, 2023",
    "managingAgency": "US Forest Service",
    "burnType": "Hand Pile",
    "acres": 21,
    "status": "Active",
    "approvedOn": "Tue Dec 05, 2023 @ 8:38 AM",
    "coordinates": [
      -121.11,
      39.93
    ]
  },
  {
    "name": "Sugarloaf",
    "date": "December 5, 2023",
    "managingAgency": "US Forest Service",
    "burnType": "Hand Pile",
    "acres": 20,
    "status": "Approved",
    "approvedOn": "Tue Dec 05, 2023 @ 8:20 AM",
    "coordinates": [
      -122.40014,
      40.86799
    ]
  },
  {
    "name": "Sugarpine",
    "date": "December 5, 2023",
    "managingAgency": "US Forest Service",
    "burnType": "Machine Pile",
    "acres": 100,
    "status": "Approved",
    "approvedOn": "Mon Dec 04, 2023 @ 4:46 PM",
    "coordinates": [
      -121.64056,
      40.40689
    ]
  },
  {
    "name": "Sugarpine",
    "date": "December 5, 2023",
    "managingAgency": "US Forest Service",
    "burnType": "Machine Pile",
    "acres": 50,
    "status": "Approved",
    "approvedOn": "Mon Dec 04, 2023 @ 4:46 PM",
    "coordinates": [
      -121.64056,
      40.40689
    ]
  },
  {
    "name": "TPFHRS Clark Creek #1",
    "date": "December 5, 2023",
    "managingAgency": "US Forest Service",
    "burnType": "Landing Pile",
    "acres": 12,
    "status": "Approved",
    "approvedOn": "Mon Dec 04, 2023 @ 9:57 AM",
    "coordinates": [
      -123.43812,
      40.72675
    ]
  },
  {
    "name": "TPFHRS HYAMPOM #14",
    "date": "December 5, 2023",
    "managingAgency": "US Forest Service",
    "burnType": "Landing Pile",
    "acres": 18,
    "status": "Approved",
    "approvedOn": "Tue Dec 05, 2023 @ 9:13 AM",
    "coordinates": [
      -123.456,
      40.663
    ]
  },
  {
    "name": "TPFHRS-HAYMAPOM 22",
    "date": "December 5, 2023",
    "managingAgency": "US Forest Service",
    "burnType": "Landing Pile",
    "acres": 17,
    "status": "Approved",
    "approvedOn": "Tue Dec 05, 2023 @ 9:12 AM",
    "coordinates": [
      -123.452,
      40.669
    ]
  },
  {
    "name": "TPFHRS-HAYMAPOM 23",
    "date": "December 5, 2023",
    "managingAgency": "US Forest Service",
    "burnType": "Landing Pile",
    "acres": 4,
    "status": "Approved",
    "approvedOn": "Tue Dec 05, 2023 @ 9:12 AM",
    "coordinates": [
      -123.456,
      40.6705
    ]
  },
  {
    "name": "Tamarack Chimney IRSC",
    "date": "December 5, 2023",
    "managingAgency": "US Forest Service",
    "burnType": "Underburn",
    "acres": 100,
    "status": "Approved",
    "approvedOn": "Tue Dec 05, 2023 @ 8:38 AM",
    "coordinates": [
      -121.025007,
      39.741763
    ]
  },
  {
    "name": "Unit 1",
    "date": "December 5, 2023",
    "managingAgency": "CAL FIRE",
    "burnType": "Hand Pile",
    "acres": 5,
    "status": "Approved",
    "approvedOn": "Tue Dec 05, 2023 @ 8:44 AM",
    "coordinates": [
      -122.5286,
      39.5944
    ]
  },
  {
    "name": "Unit 5",
    "date": "December 5, 2023",
    "managingAgency": "Bureau of Land Management",
    "burnType": "Hand Pile",
    "acres": 2.5,
    "status": "Approved",
    "approvedOn": "Tue Dec 05, 2023 @ 8:58 AM",
    "coordinates": [
      -122.88244733370435,
      40.607399928175305
    ]
  },
  {
    "name": "Upper Truckee 97",
    "date": "December 5, 2023",
    "managingAgency": "US Forest Service",
    "burnType": "Hand Pile",
    "acres": 27,
    "status": "Approved",
    "approvedOn": "Mon Dec 04, 2023 @ 3:56 PM",
    "coordinates": [
      -120.014349,
      38.79812
    ]
  },
  {
    "name": "Wagon Trail - Unit 2",
    "date": "December 5, 2023",
    "managingAgency": "CAL FIRE",
    "burnType": "Hand Pile",
    "acres": 0.25,
    "status": "Approved",
    "approvedOn": "Mon Dec 04, 2023 @ 3:16 PM",
    "coordinates": [
      -120.93736,
      39.09426
    ]
  },
  {
    "name": "Warrenella Road Fuelbreak",
    "date": "December 5, 2023",
    "managingAgency": "Misc Private Organization",
    "burnType": "Underburn",
    "acres": 3,
    "status": "Approved",
    "approvedOn": "Thu Nov 30, 2023 @ 7:59 AM",
    "coordinates": [
      -122.158946,
      37.114851
    ]
  },
  {
    "name": "West Moran/Overlook/Big Tree Creek segment A",
    "date": "December 5, 2023",
    "managingAgency": "California State Parks",
    "burnType": "Hand Pile",
    "acres": 109.25,
    "status": "Approved",
    "approvedOn": "Fri Dec 01, 2023 @ 8:31 AM",
    "coordinates": [
      -120.31643868153772,
      38.270427758140116
    ]
  },
  {
    "name": "Whiskeytown Park wide pile Burn",
    "date": "December 5, 2023",
    "managingAgency": "National Park Service",
    "burnType": "Hand Pile",
    "acres": 10,
    "status": "Approved",
    "approvedOn": "Tue Dec 05, 2023 @ 8:17 AM",
    "coordinates": [
      -122.63596476160072,
      40.661589825600075
    ]
  },
  {
    "name": "Yellow",
    "date": "December 5, 2023",
    "managingAgency": "US Forest Service",
    "burnType": "Machine Pile",
    "acres": 100,
    "status": "Approved",
    "approvedOn": "Mon Dec 04, 2023 @ 3:56 PM",
    "coordinates": [
      -120.491541,
      38.827417
    ]
  },
  {
    "name": "unit 6",
    "date": "December 5, 2023",
    "managingAgency": "Bureau of Land Management",
    "burnType": "Hand Pile",
    "acres": 10,
    "status": "Approved",
    "approvedOn": "Tue Dec 05, 2023 @ 9:04 AM",
    "coordinates": [
      -122.89892627672796,
      40.598188874039764
    ]
  }
]