[
  {
    "name": "100",
    "date": "October 5, 2023",
    "managingAgency": "US Forest Service",
    "burnType": "Underburn",
    "acres": 147,
    "status": "Approved",
    "approvedOn": "Wed Oct 04, 2023 @ 10:41 AM",
    "coordinates": [
      -120.233,
      39.438
    ]
  },
  {
    "name": "2023-Johnson VMP",
    "date": "October 5, 2023",
    "managingAgency": "CAL FIRE",
    "burnType": "Underburn",
    "acres": 3261,
    "status": "Approved",
    "approvedOn": "Wed Oct 04, 2023 @ 2:59 PM",
    "coordinates": [
      -120.61526,
      36.119913
    ]
  },
  {
    "name": "2023-Segments 1,2,3,4,6",
    "date": "October 5, 2023",
    "managingAgency": "US Forest Service",
    "burnType": "Underburn",
    "acres": 300,
    "status": "Approved",
    "approvedOn": "Wed Oct 04, 2023 @ 2:45 PM",
    "coordinates": [
      -118.972035,
      36.715202
    ]
  },
  {
    "name": "2023-Shaver Lake Understory",
    "date": "October 5, 2023",
    "managingAgency": "Southern California Edison",
    "burnType": "Underburn",
    "acres": 400,
    "status": "Approved",
    "approvedOn": "Wed Oct 04, 2023 @ 2:49 PM",
    "coordinates": [
      -119.288965,
      37.107236
    ]
  },
  {
    "name": "2023-Unit 1",
    "date": "October 5, 2023",
    "managingAgency": "CAL FIRE",
    "burnType": "Underburn",
    "acres": 600,
    "status": "Approved",
    "approvedOn": "Wed Oct 04, 2023 @ 2:58 PM",
    "coordinates": [
      -120.585502,
      36.127933
    ]
  },
  {
    "name": "76",
    "date": "October 5, 2023",
    "managingAgency": "US Forest Service",
    "burnType": "Underburn",
    "acres": 99,
    "status": "Active",
    "approvedOn": "Wed Oct 04, 2023 @ 10:41 AM",
    "coordinates": [
      -120.22069817531803,
      39.428390462637665
    ]
  },
  {
    "name": "Crook Units 1-4",
    "date": "October 5, 2023",
    "managingAgency": "CAL FIRE",
    "burnType": "Underburn",
    "acres": 100,
    "status": "Approved",
    "approvedOn": "Wed Oct 04, 2023 @ 11:29 AM",
    "coordinates": [
      -120.25447512338332,
      37.88187193348664
    ]
  },
  {
    "name": "Fallen Leaf HT 172",
    "date": "October 5, 2023",
    "managingAgency": "US Forest Service",
    "burnType": "Hand Pile",
    "acres": 10,
    "status": "Approved",
    "approvedOn": "Wed Oct 04, 2023 @ 4:14 PM",
    "coordinates": [
      -120.051608,
      38.890627
    ]
  },
  {
    "name": "Fallen Leaf HT 172",
    "date": "October 5, 2023",
    "managingAgency": "US Forest Service",
    "burnType": "Hand Pile",
    "acres": 10,
    "status": "Approved",
    "approvedOn": "Wed Oct 04, 2023 @ 4:14 PM",
    "coordinates": [
      -120.051608,
      38.890627
    ]
  },
  {
    "name": "Grass Flat 692",
    "date": "October 5, 2023",
    "managingAgency": "US Forest Service",
    "burnType": "Underburn",
    "acres": 82,
    "status": "Approved",
    "approvedOn": "Wed Oct 04, 2023 @ 10:01 AM",
    "coordinates": [
      -121.007607,
      39.744618
    ]
  },
  {
    "name": "Morrow-Dash VMP",
    "date": "October 5, 2023",
    "managingAgency": "CAL FIRE",
    "burnType": "Underburn",
    "acres": 420,
    "status": "Approved",
    "approvedOn": "Wed Oct 04, 2023 @ 1:30 PM",
    "coordinates": [
      -122.04322498940627,
      40.648256427792
    ]
  },
  {
    "name": "Pile Burn All ",
    "date": "October 5, 2023",
    "managingAgency": "CAL FIRE",
    "burnType": "Hand Pile",
    "acres": 10,
    "status": "Approved",
    "approvedOn": "Wed Oct 04, 2023 @ 1:25 PM",
    "coordinates": [
      -118.19376210246087,
      36.8933778469916
    ]
  },
  {
    "name": "Pit 5 and 6",
    "date": "October 5, 2023",
    "managingAgency": "US Forest Service",
    "burnType": "Underburn",
    "acres": 128,
    "status": "Approved",
    "approvedOn": "Wed Oct 04, 2023 @ 2:27 PM",
    "coordinates": [
      -118.928,
      37.63
    ]
  },
  {
    "name": "Studhorse (Units: 1-5)",
    "date": "October 5, 2023",
    "managingAgency": "National Park Service",
    "burnType": "Underburn",
    "acres": 69,
    "status": "Approved",
    "approvedOn": "Wed Oct 04, 2023 @ 5:01 PM",
    "coordinates": [
      -119.63695320572616,
      37.53211418932631
    ]
  },
  {
    "name": "Unit A",
    "date": "October 5, 2023",
    "managingAgency": "Marin County Fire Department",
    "burnType": "Underburn",
    "acres": 146,
    "status": "Approved",
    "approvedOn": "Thu Oct 05, 2023 @ 7:40 AM",
    "coordinates": [
      -122.601328,
      38.065889
    ]
  },
  {
    "name": "West Shore",
    "date": "October 5, 2023",
    "managingAgency": "US Forest Service",
    "burnType": "Underburn",
    "acres": 100,
    "status": "Approved",
    "approvedOn": "Wed Sep 27, 2023 @ 9:43 AM",
    "coordinates": [
      -121.1876,
      40.2017
    ]
  },
  {
    "name": "river levee",
    "date": "October 5, 2023",
    "managingAgency": "Knights Landing Fire Department",
    "burnType": "Underburn",
    "acres": 1.5,
    "status": "Approved",
    "approvedOn": "Thu Oct 05, 2023 @ 11:35 AM",
    "coordinates": [
      -121.72352549132415,
      38.80002012361323
    ]
  }
]