[
  {
    "name": "2023-Dinkey Properties Piles",
    "date": "December 2, 2023",
    "managingAgency": "Southern California Edison",
    "burnType": "Hand Pile",
    "acres": 50,
    "status": "Approved",
    "approvedOn": "Fri Dec 01, 2023 @ 2:15 PM",
    "coordinates": [
      -119.1,
      37
    ]
  },
  {
    "name": "2023-Meamber",
    "date": "December 2, 2023",
    "managingAgency": "FWS Forestry LLC ",
    "burnType": "Unknown",
    "acres": 287,
    "status": "Active",
    "approvedOn": "Fri Dec 01, 2023 @ 4:51 PM",
    "coordinates": [
      -122.98441,
      41.668905
    ]
  },
  {
    "name": "2023-Shaver Lake Understory",
    "date": "December 2, 2023",
    "managingAgency": "Southern California Edison",
    "burnType": "Underburn",
    "acres": 400,
    "status": "Approved",
    "approvedOn": "Fri Dec 01, 2023 @ 2:16 PM",
    "coordinates": [
      -119.288965,
      37.107236
    ]
  },
  {
    "name": "Administrative Site -  Alandale ",
    "date": "December 2, 2023",
    "managingAgency": "US Forest Service",
    "burnType": "Hand Pile",
    "acres": 5,
    "status": "Patrol",
    "approvedOn": "Fri Dec 01, 2023 @ 1:06 PM",
    "coordinates": [
      -116.75203621387482,
      33.783392035946136
    ]
  },
  {
    "name": "BCCER Prop Management ",
    "date": "December 2, 2023",
    "managingAgency": "CSU Chico Research Foundation",
    "burnType": "Hand Pile",
    "acres": 0.1,
    "status": "Approved",
    "approvedOn": "Thu Nov 30, 2023 @ 8:05 AM",
    "coordinates": [
      -121.739287,
      39.742273
    ]
  },
  {
    "name": "H-2 ",
    "date": "December 2, 2023",
    "managingAgency": "Firestorm Wildland Fire Suppression Inc",
    "burnType": "Hand Pile",
    "acres": 1,
    "status": "Patrol",
    "approvedOn": "Fri Dec 01, 2023 @ 8:35 AM",
    "coordinates": [
      -122.806278,
      38.717058
    ]
  },
  {
    "name": "Nordlinger",
    "date": "December 2, 2023",
    "managingAgency": "Audubon Canyon Ranch",
    "burnType": "Underburn",
    "acres": 42,
    "status": "Approved",
    "approvedOn": "Sat Dec 02, 2023 @ 8:09 AM",
    "coordinates": [
      -122.37030166,
      38.354556
    ]
  },
  {
    "name": "Reds FH 4",
    "date": "December 2, 2023",
    "managingAgency": "US Forest Service",
    "burnType": "Hand Pile",
    "acres": 48.1,
    "status": "Approved",
    "approvedOn": "Fri Dec 01, 2023 @ 3:28 PM",
    "coordinates": [
      -119.04838923358415,
      37.65070508905691
    ]
  },
  {
    "name": "Upper Truckee 97",
    "date": "December 2, 2023",
    "managingAgency": "US Forest Service",
    "burnType": "Hand Pile",
    "acres": 27,
    "status": "Approved",
    "approvedOn": "Fri Dec 01, 2023 @ 3:13 PM",
    "coordinates": [
      -120.014349,
      38.79812
    ]
  }
]