[
  {
    "name": "2023-2023 Roadside Buffer Piles",
    "date": "December 7, 2023",
    "managingAgency": "National Park Service",
    "burnType": "Unknown",
    "acres": 158,
    "status": "Approved",
    "approvedOn": "Wed Dec 06, 2023 @ 3:50 PM",
    "coordinates": [
      -121.5266,
      41.7109
    ]
  },
  {
    "name": "2023-Bolivar",
    "date": "December 7, 2023",
    "managingAgency": "FWS Forestry LLC ",
    "burnType": "Unknown",
    "acres": 40,
    "status": "Approved",
    "approvedOn": "Wed Dec 06, 2023 @ 3:49 PM",
    "coordinates": [
      -122.78438,
      41.28306
    ]
  },
  {
    "name": "2023-Dinkey Properties Piles",
    "date": "December 7, 2023",
    "managingAgency": "Southern California Edison",
    "burnType": "Hand Pile",
    "acres": 50,
    "status": "Approved",
    "approvedOn": "Wed Dec 06, 2023 @ 4:39 PM",
    "coordinates": [
      -119.1,
      37
    ]
  },
  {
    "name": "2023-Moffett / Mountain Fire",
    "date": "December 7, 2023",
    "managingAgency": "FWS Forestry LLC ",
    "burnType": "Unknown",
    "acres": 320,
    "status": "Approved",
    "approvedOn": "Wed Dec 06, 2023 @ 3:49 PM",
    "coordinates": [
      -122.682796,
      41.500814
    ]
  },
  {
    "name": "2023-Shaver Lake Understory",
    "date": "December 7, 2023",
    "managingAgency": "Southern California Edison",
    "burnType": "Underburn",
    "acres": 400,
    "status": "Approved",
    "approvedOn": "Wed Dec 06, 2023 @ 4:41 PM",
    "coordinates": [
      -119.288965,
      37.107236
    ]
  },
  {
    "name": "2023-Tennant",
    "date": "December 7, 2023",
    "managingAgency": "FWS Forestry LLC ",
    "burnType": "Unknown",
    "acres": 200,
    "status": "Approved",
    "approvedOn": "Wed Dec 06, 2023 @ 3:50 PM",
    "coordinates": [
      -121.91289,
      41.589543
    ]
  },
  {
    "name": "2023-Yreka Transfer Site Green Waste",
    "date": "December 7, 2023",
    "managingAgency": "CAL FIRE",
    "burnType": "Unknown",
    "acres": 0.1,
    "status": "Approved",
    "approvedOn": "Wed Dec 06, 2023 @ 1:41 PM",
    "coordinates": [
      -122.5943,
      41.7
    ]
  },
  {
    "name": "5n40/5n12",
    "date": "December 7, 2023",
    "managingAgency": "US Forest Service",
    "burnType": "Hand Pile",
    "acres": 316.4,
    "status": "Approved",
    "approvedOn": "Thu Dec 07, 2023 @ 7:21 AM",
    "coordinates": [
      -119.975516,
      38.252805
    ]
  },
  {
    "name": "Amoruso VMP Piles",
    "date": "December 7, 2023",
    "managingAgency": "CAL FIRE",
    "burnType": "Machine Pile",
    "acres": 5,
    "status": "Approved",
    "approvedOn": "Thu Dec 07, 2023 @ 7:48 AM",
    "coordinates": [
      -120.77662972575666,
      38.503883776592325
    ]
  },
  {
    "name": "BCCER Burn units",
    "date": "December 7, 2023",
    "managingAgency": "CSU Chico Research Foundation",
    "burnType": "Unknown",
    "acres": 0.25,
    "status": "Approved",
    "approvedOn": "Thu Dec 07, 2023 @ 7:27 AM",
    "coordinates": [
      -121.7020157634645,
      39.84554310755987
    ]
  },
  {
    "name": "Banning",
    "date": "December 7, 2023",
    "managingAgency": "US Forest Service",
    "burnType": "Hand Pile",
    "acres": 9,
    "status": "Approved",
    "approvedOn": "Wed Dec 06, 2023 @ 11:46 AM",
    "coordinates": [
      -116.9128694132191,
      33.97410284596611
    ]
  },
  {
    "name": "Battle Creek",
    "date": "December 7, 2023",
    "managingAgency": "Wyntoon Timberlands LLC",
    "burnType": "Landing Pile",
    "acres": 150,
    "status": "Approved",
    "approvedOn": "Wed Dec 06, 2023 @ 4:32 PM",
    "coordinates": [
      -122.092357,
      41.144541
    ]
  },
  {
    "name": "Block 1",
    "date": "December 7, 2023",
    "managingAgency": "Private Landowner",
    "burnType": "Hand Pile",
    "acres": 10,
    "status": "Approved",
    "approvedOn": "Thu Dec 07, 2023 @ 5:10 AM",
    "coordinates": [
      -122.690576,
      38.526463
    ]
  },
  {
    "name": "Boonedock Harvest",
    "date": "December 7, 2023",
    "managingAgency": "Placer County Water Agency",
    "burnType": "Machine Pile",
    "acres": 10,
    "status": "Approved",
    "approvedOn": "Wed Dec 06, 2023 @ 1:14 PM",
    "coordinates": [
      -121.767413,
      40.23895
    ]
  },
  {
    "name": "Brush",
    "date": "December 7, 2023",
    "managingAgency": "CAL FIRE",
    "burnType": "Hand Pile",
    "acres": 0.5,
    "status": "Approved",
    "approvedOn": "Mon Nov 27, 2023 @ 10:13 AM",
    "coordinates": [
      -121.747414,
      37.010155
    ]
  },
  {
    "name": "Carbonizer",
    "date": "December 7, 2023",
    "managingAgency": "Earth Foundries, Inc.",
    "burnType": "Machine Pile",
    "acres": 16,
    "status": "Approved",
    "approvedOn": "Thu Dec 07, 2023 @ 5:10 AM",
    "coordinates": [
      -122.102868,
      37.74467
    ]
  },
  {
    "name": "Carbonizer",
    "date": "December 7, 2023",
    "managingAgency": "Earth Foundries, Inc.",
    "burnType": "Machine Pile",
    "acres": 8,
    "status": "Approved",
    "approvedOn": "Wed Dec 06, 2023 @ 8:52 AM",
    "coordinates": [
      -122.102868,
      37.74467
    ]
  },
  {
    "name": "Crystal Creek",
    "date": "December 7, 2023",
    "managingAgency": "Jefferson Resource",
    "burnType": "Landing Pile",
    "acres": 6,
    "status": "Approved",
    "approvedOn": "Thu Dec 07, 2023 @ 9:12 AM",
    "coordinates": [
      -122.93079,
      41.47762
    ]
  },
  {
    "name": "EFS Leap ",
    "date": "December 7, 2023",
    "managingAgency": "US Forest Service",
    "burnType": "Hand Pile",
    "acres": 100,
    "status": "Approved",
    "approvedOn": "Thu Dec 07, 2023 @ 9:27 AM",
    "coordinates": [
      -122.815,
      41.64306
    ]
  },
  {
    "name": "ESPP 01B",
    "date": "December 7, 2023",
    "managingAgency": "East Bay Municipal Utility District",
    "burnType": "Hand Pile",
    "acres": 15,
    "status": "Approved",
    "approvedOn": "Thu Dec 07, 2023 @ 5:10 AM",
    "coordinates": [
      -122.213853,
      37.905784
    ]
  },
  {
    "name": "East Power",
    "date": "December 7, 2023",
    "managingAgency": "US Forest Service",
    "burnType": "Landing Pile",
    "acres": 28,
    "status": "Active",
    "approvedOn": "Wed Dec 06, 2023 @ 4:31 PM",
    "coordinates": [
      -121.2124,
      41.3277
    ]
  },
  {
    "name": "French Hill Area 2(l)",
    "date": "December 7, 2023",
    "managingAgency": "US Forest Service",
    "burnType": "Unknown",
    "acres": 10,
    "status": "Approved",
    "approvedOn": "Tue Dec 05, 2023 @ 11:03 AM",
    "coordinates": [
      -123.9891667,
      41.82583333
    ]
  },
  {
    "name": "H-2 ",
    "date": "December 7, 2023",
    "managingAgency": "Firestorm Wildland Fire Suppression Inc",
    "burnType": "Hand Pile",
    "acres": 1,
    "status": "Active",
    "approvedOn": "Wed Dec 06, 2023 @ 3:52 PM",
    "coordinates": [
      -122.806278,
      38.717058
    ]
  },
  {
    "name": "Historic District Unit",
    "date": "December 7, 2023",
    "managingAgency": "California State Parks",
    "burnType": "Hand Pile",
    "acres": 0.25,
    "status": "Approved",
    "approvedOn": "Thu Dec 07, 2023 @ 7:21 AM",
    "coordinates": [
      -120.39785046351419,
      38.03182647534532
    ]
  },
  {
    "name": "IRSC Unit 7",
    "date": "December 7, 2023",
    "managingAgency": "US Forest Service",
    "burnType": "Hand Pile",
    "acres": 25,
    "status": "Approved",
    "approvedOn": "Thu Dec 07, 2023 @ 9:12 AM",
    "coordinates": [
      -123.4618,
      41.9234
    ]
  },
  {
    "name": "Independence Unit 4",
    "date": "December 7, 2023",
    "managingAgency": "US Forest Service",
    "burnType": "Machine Pile",
    "acres": 18,
    "status": "Approved",
    "approvedOn": "Thu Dec 07, 2023 @ 9:33 AM",
    "coordinates": [
      -120.254691,
      39.469627
    ]
  },
  {
    "name": "Independence Unit 6",
    "date": "December 7, 2023",
    "managingAgency": "US Forest Service",
    "burnType": "Machine Pile",
    "acres": 7,
    "status": "Approved",
    "approvedOn": "Thu Dec 07, 2023 @ 9:33 AM",
    "coordinates": [
      -120.261823,
      39.467109
    ]
  },
  {
    "name": "Lakes Basin- Unit 409a",
    "date": "December 7, 2023",
    "managingAgency": "US Forest Service",
    "burnType": "Hand Pile",
    "acres": 3.1,
    "status": "Active",
    "approvedOn": "Thu Dec 07, 2023 @ 11:23 AM",
    "coordinates": [
      -120.615532,
      39.744618
    ]
  },
  {
    "name": "Lily Lake 1011",
    "date": "December 7, 2023",
    "managingAgency": "US Forest Service",
    "burnType": "Hand Pile",
    "acres": 14,
    "status": "Approved",
    "approvedOn": "Wed Dec 06, 2023 @ 2:56 PM",
    "coordinates": [
      -119.960266,
      38.890065
    ]
  },
  {
    "name": "Loafer Creek",
    "date": "December 7, 2023",
    "managingAgency": "CAL FIRE",
    "burnType": "Underburn",
    "acres": 2,
    "status": "Approved",
    "approvedOn": "Thu Dec 07, 2023 @ 7:27 AM",
    "coordinates": [
      -121.446991,
      39.524965
    ]
  },
  {
    "name": "Lost Spider",
    "date": "December 7, 2023",
    "managingAgency": "Wyntoon Timberlands LLC",
    "burnType": "Landing Pile",
    "acres": 100,
    "status": "Approved",
    "approvedOn": "Wed Dec 06, 2023 @ 4:32 PM",
    "coordinates": [
      -122.096212,
      41.174163
    ]
  },
  {
    "name": "Phase 2",
    "date": "December 7, 2023",
    "managingAgency": "Higgins Ridge LLC",
    "burnType": "Machine Pile",
    "acres": 0.75,
    "status": "Approved",
    "approvedOn": "Thu Dec 07, 2023 @ 7:27 AM",
    "coordinates": [
      -121.688799,
      39.878513
    ]
  },
  {
    "name": "Pine Ridge",
    "date": "December 7, 2023",
    "managingAgency": "California State Parks",
    "burnType": "Hand Pile",
    "acres": 50,
    "status": "Approved",
    "approvedOn": "Thu Dec 07, 2023 @ 5:10 AM",
    "coordinates": [
      -121.542898,
      37.192803
    ]
  },
  {
    "name": "Raglin",
    "date": "December 7, 2023",
    "managingAgency": "Crane Mills",
    "burnType": "Hand Pile",
    "acres": 20,
    "status": "Approved",
    "approvedOn": "Thu Dec 07, 2023 @ 7:29 AM",
    "coordinates": [
      -122.770227,
      40.009907
    ]
  },
  {
    "name": "Rock Fence Stew",
    "date": "December 7, 2023",
    "managingAgency": "US Forest Service",
    "burnType": "Hand Pile",
    "acres": 20,
    "status": "Approved",
    "approvedOn": "Thu Dec 07, 2023 @ 9:27 AM",
    "coordinates": [
      -122.6709315793457,
      41.35622282219707
    ]
  },
  {
    "name": "Round Valley Juniper Reduction",
    "date": "December 7, 2023",
    "managingAgency": "US Forest Service",
    "burnType": "Machine Pile",
    "acres": 103,
    "status": "Approved",
    "approvedOn": "Wed Dec 06, 2023 @ 4:31 PM",
    "coordinates": [
      -121.9643,
      41.7373
    ]
  },
  {
    "name": "SV - Pool Hall Woods Pile Burn",
    "date": "December 7, 2023",
    "managingAgency": "Sonoma County Regional Parks ",
    "burnType": "Hand Pile",
    "acres": 50,
    "status": "Active",
    "approvedOn": "Thu Dec 07, 2023 @ 5:10 AM",
    "coordinates": [
      -122.505516,
      38.36551
    ]
  },
  {
    "name": "Shake Fiddletown piles",
    "date": "December 7, 2023",
    "managingAgency": "CAL FIRE",
    "burnType": "Hand Pile",
    "acres": 2,
    "status": "Approved",
    "approvedOn": "Wed Dec 06, 2023 @ 4:21 PM",
    "coordinates": [
      -120.562982,
      38.71796
    ]
  },
  {
    "name": "Shasta Dam",
    "date": "December 7, 2023",
    "managingAgency": "California Great Basin, Northern California Area Office",
    "burnType": "Hand Pile",
    "acres": 0.5,
    "status": "Approved",
    "approvedOn": "Wed Dec 06, 2023 @ 4:27 PM",
    "coordinates": [
      -122.41839936252201,
      40.71568229588444
    ]
  },
  {
    "name": "Shiloh Piles 2023",
    "date": "December 7, 2023",
    "managingAgency": "CAL FIRE",
    "burnType": "Hand Pile",
    "acres": 5,
    "status": "Approved",
    "approvedOn": "Mon Dec 04, 2023 @ 6:59 AM",
    "coordinates": [
      -120.16955320205987,
      38.071258433754544
    ]
  },
  {
    "name": "Snell Phase 5",
    "date": "December 7, 2023",
    "managingAgency": "US Forest Service",
    "burnType": "Hand Pile",
    "acres": 247,
    "status": "Approved",
    "approvedOn": "Wed Dec 06, 2023 @ 3:49 PM",
    "coordinates": [
      -121.522351,
      41.418898
    ]
  },
  {
    "name": "Stoney Breaker",
    "date": "December 7, 2023",
    "managingAgency": "Bureau of Land Management",
    "burnType": "Hand Pile",
    "acres": 60,
    "status": "Approved",
    "approvedOn": "Thu Dec 07, 2023 @ 10:30 AM",
    "coordinates": [
      -121.0462,
      41.1017
    ]
  },
  {
    "name": "Truckee DO",
    "date": "December 7, 2023",
    "managingAgency": "US Forest Service",
    "burnType": "Hand Pile",
    "acres": 0.25,
    "status": "Approved",
    "approvedOn": "Thu Dec 07, 2023 @ 9:37 AM",
    "coordinates": [
      -120.168,
      39.334
    ]
  },
  {
    "name": "Unit 1",
    "date": "December 7, 2023",
    "managingAgency": "CAL FIRE",
    "burnType": "Hand Pile",
    "acres": 5,
    "status": "Active",
    "approvedOn": "Tue Dec 05, 2023 @ 8:45 AM",
    "coordinates": [
      -122.5286,
      39.5944
    ]
  },
  {
    "name": "Unit 15",
    "date": "December 7, 2023",
    "managingAgency": "Unknown",
    "burnType": "Hand Pile",
    "acres": 1.64,
    "status": "Approved",
    "approvedOn": "Thu Dec 07, 2023 @ 9:43 AM",
    "coordinates": [
      -119.999343445057,
      38.89042400314081
    ]
  },
  {
    "name": "Unit 65",
    "date": "December 7, 2023",
    "managingAgency": "Unknown",
    "burnType": "Hand Pile",
    "acres": 4.45,
    "status": "Approved",
    "approvedOn": "Thu Dec 07, 2023 @ 9:43 AM",
    "coordinates": [
      -119.9992714883243,
      38.89012156566513
    ]
  },
  {
    "name": "Unit 91",
    "date": "December 7, 2023",
    "managingAgency": "Unknown",
    "burnType": "Hand Pile",
    "acres": 5.01,
    "status": "Patrol",
    "approvedOn": "Tue Dec 05, 2023 @ 3:48 PM",
    "coordinates": [
      -119.98873901075436,
      38.90492613253405
    ]
  },
  {
    "name": "Upper Truckee 97",
    "date": "December 7, 2023",
    "managingAgency": "US Forest Service",
    "burnType": "Hand Pile",
    "acres": 27,
    "status": "Approved",
    "approvedOn": "Wed Dec 06, 2023 @ 2:56 PM",
    "coordinates": [
      -120.014349,
      38.79812
    ]
  },
  {
    "name": "Warrenella Road Fuelbreak",
    "date": "December 7, 2023",
    "managingAgency": "Misc Private Organization",
    "burnType": "Underburn",
    "acres": 3,
    "status": "Approved",
    "approvedOn": "Thu Nov 30, 2023 @ 7:59 AM",
    "coordinates": [
      -122.158946,
      37.114851
    ]
  },
  {
    "name": "West Moran/Overlook/Big Tree Creek segment A",
    "date": "December 7, 2023",
    "managingAgency": "California State Parks",
    "burnType": "Hand Pile",
    "acres": 109.25,
    "status": "Approved",
    "approvedOn": "Fri Dec 01, 2023 @ 8:31 AM",
    "coordinates": [
      -120.31643868153772,
      38.270427758140116
    ]
  },
  {
    "name": "Willow Creek Road",
    "date": "December 7, 2023",
    "managingAgency": "California State Parks",
    "burnType": "Hand Pile",
    "acres": 4,
    "status": "Approved",
    "approvedOn": "Wed Dec 06, 2023 @ 11:27 AM",
    "coordinates": [
      -123.01089334279028,
      38.42556524247757
    ]
  },
  {
    "name": "unit 6",
    "date": "December 7, 2023",
    "managingAgency": "Bureau of Land Management",
    "burnType": "Hand Pile",
    "acres": 15,
    "status": "Approved",
    "approvedOn": "Thu Dec 07, 2023 @ 8:25 AM",
    "coordinates": [
      -122.89892627672796,
      40.598188874039764
    ]
  }
]