[
  {
    "name": "Amoruso VMP Piles",
    "date": "December 17, 2023",
    "managingAgency": "CAL FIRE",
    "burnType": "Machine Pile",
    "acres": 5,
    "status": "Approved",
    "approvedOn": "Fri Dec 15, 2023 @ 8:02 AM",
    "coordinates": [
      -120.77662972575666,
      38.503883776592325
    ]
  },
  {
    "name": "B&B Hunting SMP 23-40 Piles",
    "date": "December 17, 2023",
    "managingAgency": "Private Landowner",
    "burnType": "Machine Pile",
    "acres": 1,
    "status": "Approved",
    "approvedOn": "Fri Dec 15, 2023 @ 3:42 PM",
    "coordinates": [
      -122.900239,
      38.876618
    ]
  },
  {
    "name": "Bower Gualala TownSMP 22-57 Piles",
    "date": "December 17, 2023",
    "managingAgency": "Private Landowner",
    "burnType": "Machine Pile",
    "acres": 1,
    "status": "Approved",
    "approvedOn": "Thu Dec 14, 2023 @ 3:16 PM",
    "coordinates": [
      -123.526119,
      38.770247
    ]
  },
  {
    "name": "Manchester Beach KOA SMP 21-60 Broadcast",
    "date": "December 17, 2023",
    "managingAgency": "Private Landowner",
    "burnType": "Underburn",
    "acres": 1,
    "status": "Approved",
    "approvedOn": "Thu Dec 14, 2023 @ 3:34 PM",
    "coordinates": [
      -123.693457,
      38.982955
    ]
  },
  {
    "name": "Plot 3",
    "date": "December 17, 2023",
    "managingAgency": "Santa Barbara County Fire Department",
    "burnType": "Underburn",
    "acres": 49,
    "status": "Approved",
    "approvedOn": "Sun Dec 17, 2023 @ 8:32 AM",
    "coordinates": [
      -120.08679,
      34.72124
    ]
  },
  {
    "name": "Roadside Thinning and Rucker Fuel Break Hand Piles",
    "date": "December 17, 2023",
    "managingAgency": "UC Berkeley",
    "burnType": "Hand Pile",
    "acres": 10,
    "status": "Approved",
    "approvedOn": "Fri Dec 15, 2023 @ 4:08 PM",
    "coordinates": [
      -120.662727,
      39.357524
    ]
  },
  {
    "name": "Shamrock SMP 23-41 Broadcast",
    "date": "December 17, 2023",
    "managingAgency": "Private Landowner",
    "burnType": "Underburn",
    "acres": 33,
    "status": "Approved",
    "approvedOn": "Thu Dec 14, 2023 @ 3:51 PM",
    "coordinates": [
      -123.43205131847374,
      39.63160375427435
    ]
  }
]