[
  {
    "name": "2023-Indian Basin Grove",
    "date": "October 28, 2023",
    "managingAgency": "US Forest Service",
    "burnType": "Underburn",
    "acres": 443,
    "status": "Approved",
    "approvedOn": "Fri Oct 27, 2023 @ 3:49 PM",
    "coordinates": [
      -118.941,
      36.8105
    ]
  },
  {
    "name": "Amber",
    "date": "October 28, 2023",
    "managingAgency": "US Forest Service",
    "burnType": "Hand Pile",
    "acres": 20,
    "status": "Approved",
    "approvedOn": "Wed Oct 25, 2023 @ 7:58 AM",
    "coordinates": [
      -121.383333,
      40.1525
    ]
  },
  {
    "name": "Lily Lake 1001",
    "date": "October 28, 2023",
    "managingAgency": "US Forest Service",
    "burnType": "Hand Pile",
    "acres": 7,
    "status": "Approved",
    "approvedOn": "Fri Oct 27, 2023 @ 2:46 PM",
    "coordinates": [
      -120.042596,
      38.912073
    ]
  },
  {
    "name": "Shamrock SMP 18- 31 Broadcast",
    "date": "October 28, 2023",
    "managingAgency": "Private Landowner",
    "burnType": "Underburn",
    "acres": 200,
    "status": "Approved",
    "approvedOn": "Wed Oct 25, 2023 @ 2:56 PM",
    "coordinates": [
      -123.43205131847374,
      39.63160375427435
    ]
  },
  {
    "name": "Unit 1",
    "date": "October 28, 2023",
    "managingAgency": "US Forest Service",
    "burnType": "Underburn",
    "acres": 275,
    "status": "Approved",
    "approvedOn": "Wed Oct 25, 2023 @ 4:35 PM",
    "coordinates": [
      -119.894,
      37.747
    ]
  }
]