[
  {
    "name": "2023-Shaver Lake Understory",
    "date": "October 3, 2023",
    "managingAgency": "Southern California Edison",
    "burnType": "Underburn",
    "acres": 400,
    "status": "Approved",
    "approvedOn": "Mon Oct 02, 2023 @ 4:34 PM",
    "coordinates": [
      -119.288965,
      37.107236
    ]
  },
  {
    "name": "Fallen Leaf HT 172",
    "date": "October 3, 2023",
    "managingAgency": "US Forest Service",
    "burnType": "Hand Pile",
    "acres": 10,
    "status": "Approved",
    "approvedOn": "Mon Oct 02, 2023 @ 3:35 PM",
    "coordinates": [
      -120.051608,
      38.890627
    ]
  },
  {
    "name": "Fallen Leaf HT 172",
    "date": "October 3, 2023",
    "managingAgency": "US Forest Service",
    "burnType": "Hand Pile",
    "acres": 10,
    "status": "Approved",
    "approvedOn": "Mon Oct 02, 2023 @ 4:42 PM",
    "coordinates": [
      -120.051608,
      38.890627
    ]
  },
  {
    "name": "Ocean Song",
    "date": "October 3, 2023",
    "managingAgency": "Audubon Canyon Ranch",
    "burnType": "Underburn",
    "acres": 30.34,
    "status": "Approved",
    "approvedOn": "Mon Oct 02, 2023 @ 8:27 AM",
    "coordinates": [
      -123.0263,
      38.4009
    ]
  },
  {
    "name": "Pile Burn All ",
    "date": "October 3, 2023",
    "managingAgency": "CAL FIRE",
    "burnType": "Hand Pile",
    "acres": 1,
    "status": "Patrol",
    "approvedOn": "Mon Oct 02, 2023 @ 2:53 PM",
    "coordinates": [
      -118.19376210246087,
      36.8933778469916
    ]
  },
  {
    "name": "Pilot Peak Lookout FR",
    "date": "October 3, 2023",
    "managingAgency": "CAL FIRE",
    "burnType": "Underburn",
    "acres": 6,
    "status": "Approved",
    "approvedOn": "Mon Oct 02, 2023 @ 3:35 PM",
    "coordinates": [
      -121.02972,
      38.81832
    ]
  },
  {
    "name": "Pit 5 and 6",
    "date": "October 3, 2023",
    "managingAgency": "US Forest Service",
    "burnType": "Underburn",
    "acres": 71,
    "status": "Approved",
    "approvedOn": "Mon Oct 02, 2023 @ 2:45 PM",
    "coordinates": [
      -118.928,
      37.63
    ]
  },
  {
    "name": "Unit A",
    "date": "October 3, 2023",
    "managingAgency": "Marin County Fire Department",
    "burnType": "Underburn",
    "acres": 146,
    "status": "Approved",
    "approvedOn": "Tue Oct 03, 2023 @ 7:28 AM",
    "coordinates": [
      -122.601328,
      38.065889
    ]
  },
  {
    "name": "Unit E",
    "date": "October 3, 2023",
    "managingAgency": "Marin County Fire Department",
    "burnType": "Underburn",
    "acres": 52,
    "status": "Approved",
    "approvedOn": "Tue Oct 03, 2023 @ 7:29 AM",
    "coordinates": [
      -122.623402,
      38.086796
    ]
  },
  {
    "name": "Unit F",
    "date": "October 3, 2023",
    "managingAgency": "Marin County Fire Department",
    "burnType": "Underburn",
    "acres": 35,
    "status": "Approved",
    "approvedOn": "Tue Oct 03, 2023 @ 7:29 AM",
    "coordinates": [
      -122.628735,
      38.091004
    ]
  },
  {
    "name": "West Shore",
    "date": "October 3, 2023",
    "managingAgency": "US Forest Service",
    "burnType": "Underburn",
    "acres": 100,
    "status": "Approved",
    "approvedOn": "Wed Sep 27, 2023 @ 9:43 AM",
    "coordinates": [
      -121.1876,
      40.2017
    ]
  },
  {
    "name": "Yosemite Valley ",
    "date": "October 3, 2023",
    "managingAgency": "National Park Service",
    "burnType": "Hand Pile",
    "acres": 30,
    "status": "Approved",
    "approvedOn": "Tue Oct 03, 2023 @ 10:31 AM",
    "coordinates": [
      -119.576149,
      37.74552849
    ]
  }
]