[
  {
    "name": "2023-Dinkey Properties Piles",
    "date": "December 8, 2023",
    "managingAgency": "Southern California Edison",
    "burnType": "Hand Pile",
    "acres": 50,
    "status": "Approved",
    "approvedOn": "Thu Dec 07, 2023 @ 9:42 PM",
    "coordinates": [
      -119.1,
      37
    ]
  },
  {
    "name": "2023-Shaver Lake Understory",
    "date": "December 8, 2023",
    "managingAgency": "Southern California Edison",
    "burnType": "Underburn",
    "acres": 400,
    "status": "Approved",
    "approvedOn": "Thu Dec 07, 2023 @ 9:44 PM",
    "coordinates": [
      -119.288965,
      37.107236
    ]
  },
  {
    "name": "Amoruso VMP Piles",
    "date": "December 8, 2023",
    "managingAgency": "CAL FIRE",
    "burnType": "Machine Pile",
    "acres": 5,
    "status": "Approved",
    "approvedOn": "Fri Dec 08, 2023 @ 8:26 AM",
    "coordinates": [
      -120.77662972575666,
      38.503883776592325
    ]
  },
  {
    "name": "BCCER Burn units",
    "date": "December 8, 2023",
    "managingAgency": "CSU Chico Research Foundation",
    "burnType": "Unknown",
    "acres": 0.25,
    "status": "Approved",
    "approvedOn": "Thu Dec 07, 2023 @ 7:27 AM",
    "coordinates": [
      -121.7020157634645,
      39.84554310755987
    ]
  },
  {
    "name": "Big Flat Area 2(h)",
    "date": "December 8, 2023",
    "managingAgency": "US Forest Service",
    "burnType": "Landing Pile",
    "acres": 20,
    "status": "Approved",
    "approvedOn": "Thu Dec 07, 2023 @ 4:12 PM",
    "coordinates": [
      -123.8966667,
      41.71166667
    ]
  },
  {
    "name": "Block 1",
    "date": "December 8, 2023",
    "managingAgency": "Private Landowner",
    "burnType": "Hand Pile",
    "acres": 10,
    "status": "Approved",
    "approvedOn": "Fri Dec 08, 2023 @ 5:17 AM",
    "coordinates": [
      -122.690576,
      38.526463
    ]
  },
  {
    "name": "Bower Gualala TownSMP 22-57 Piles",
    "date": "December 8, 2023",
    "managingAgency": "Private Landowner",
    "burnType": "Machine Pile",
    "acres": 1,
    "status": "Approved",
    "approvedOn": "Fri Dec 08, 2023 @ 9:53 AM",
    "coordinates": [
      -123.526119,
      38.770247
    ]
  },
  {
    "name": "Brush",
    "date": "December 8, 2023",
    "managingAgency": "CAL FIRE",
    "burnType": "Hand Pile",
    "acres": 0.5,
    "status": "Approved",
    "approvedOn": "Mon Nov 27, 2023 @ 9:26 AM",
    "coordinates": [
      -121.747414,
      37.010155
    ]
  },
  {
    "name": "Caldor ",
    "date": "December 8, 2023",
    "managingAgency": "California Forestry and Excavation",
    "burnType": "Machine Pile",
    "acres": 5,
    "status": "Approved",
    "approvedOn": "Thu Dec 07, 2023 @ 4:01 PM",
    "coordinates": [
      -120.50829193460171,
      38.63545064366902
    ]
  },
  {
    "name": "Captain Roberts Boat Ramp",
    "date": "December 8, 2023",
    "managingAgency": "US Forest Service",
    "burnType": "Hand Pile",
    "acres": 2,
    "status": "Approved",
    "approvedOn": "Fri Dec 08, 2023 @ 9:49 AM",
    "coordinates": [
      -120.1374545153555,
      39.46925325322407
    ]
  },
  {
    "name": "Carbonizer",
    "date": "December 8, 2023",
    "managingAgency": "Earth Foundries, Inc.",
    "burnType": "Machine Pile",
    "acres": 8,
    "status": "Approved",
    "approvedOn": "Fri Dec 08, 2023 @ 5:05 AM",
    "coordinates": [
      -122.102868,
      37.74467
    ]
  },
  {
    "name": "Carbonizer",
    "date": "December 8, 2023",
    "managingAgency": "Earth Foundries, Inc.",
    "burnType": "Machine Pile",
    "acres": 16,
    "status": "Approved",
    "approvedOn": "Fri Dec 08, 2023 @ 5:05 AM",
    "coordinates": [
      -122.102868,
      37.74467
    ]
  },
  {
    "name": "Cascade 146",
    "date": "December 8, 2023",
    "managingAgency": "US Forest Service",
    "burnType": "Hand Pile",
    "acres": 10,
    "status": "Approved",
    "approvedOn": "Thu Dec 07, 2023 @ 4:01 PM",
    "coordinates": [
      -120.055175,
      38.929107
    ]
  },
  {
    "name": "EFS Scott Mountain PCT",
    "date": "December 8, 2023",
    "managingAgency": "US Forest Service",
    "burnType": "Hand Pile",
    "acres": 93,
    "status": "Approved",
    "approvedOn": "Thu Dec 07, 2023 @ 4:57 PM",
    "coordinates": [
      -122.77306,
      41.44944
    ]
  },
  {
    "name": "French Hill Area 2(l)",
    "date": "December 8, 2023",
    "managingAgency": "US Forest Service",
    "burnType": "Unknown",
    "acres": 10,
    "status": "Approved",
    "approvedOn": "Thu Dec 07, 2023 @ 11:13 AM",
    "coordinates": [
      -123.9891667,
      41.82583333
    ]
  },
  {
    "name": "H-2 ",
    "date": "December 8, 2023",
    "managingAgency": "Firestorm Wildland Fire Suppression Inc",
    "burnType": "Hand Pile",
    "acres": 1,
    "status": "Active",
    "approvedOn": "Fri Dec 08, 2023 @ 8:17 AM",
    "coordinates": [
      -122.806278,
      38.717058
    ]
  },
  {
    "name": "Historic District Unit",
    "date": "December 8, 2023",
    "managingAgency": "California State Parks",
    "burnType": "Hand Pile",
    "acres": 0.25,
    "status": "Approved",
    "approvedOn": "Fri Dec 08, 2023 @ 10:30 AM",
    "coordinates": [
      -120.39785046351419,
      38.03182647534532
    ]
  },
  {
    "name": "Lily Lake 1011",
    "date": "December 8, 2023",
    "managingAgency": "US Forest Service",
    "burnType": "Hand Pile",
    "acres": 14,
    "status": "Approved",
    "approvedOn": "Thu Dec 07, 2023 @ 4:01 PM",
    "coordinates": [
      -119.960266,
      38.890065
    ]
  },
  {
    "name": "Manchester Beach KOA SMP 21-60 Piles",
    "date": "December 8, 2023",
    "managingAgency": "Private Landowner",
    "burnType": "Machine Pile",
    "acres": 2,
    "status": "Approved",
    "approvedOn": "Fri Dec 08, 2023 @ 9:54 AM",
    "coordinates": [
      -123.69034046779484,
      38.98455463454095
    ]
  },
  {
    "name": "Raglin",
    "date": "December 8, 2023",
    "managingAgency": "Crane Mills",
    "burnType": "Hand Pile",
    "acres": 30,
    "status": "Approved",
    "approvedOn": "Thu Dec 07, 2023 @ 4:16 PM",
    "coordinates": [
      -122.770227,
      40.009907
    ]
  },
  {
    "name": "SV - Pool Hall Woods Pile Burn",
    "date": "December 8, 2023",
    "managingAgency": "Sonoma County Regional Parks ",
    "burnType": "Hand Pile",
    "acres": 50,
    "status": "Active",
    "approvedOn": "Fri Dec 08, 2023 @ 5:16 AM",
    "coordinates": [
      -122.505516,
      38.36551
    ]
  },
  {
    "name": "Shake Fiddletown piles",
    "date": "December 8, 2023",
    "managingAgency": "CAL FIRE",
    "burnType": "Hand Pile",
    "acres": 2,
    "status": "Approved",
    "approvedOn": "Wed Dec 06, 2023 @ 4:21 PM",
    "coordinates": [
      -120.562982,
      38.71796
    ]
  },
  {
    "name": "Shiloh Piles 2023",
    "date": "December 8, 2023",
    "managingAgency": "CAL FIRE",
    "burnType": "Hand Pile",
    "acres": 5,
    "status": "Approved",
    "approvedOn": "Mon Dec 04, 2023 @ 6:59 AM",
    "coordinates": [
      -120.16955320205987,
      38.071258433754544
    ]
  },
  {
    "name": "Upper Truckee 97",
    "date": "December 8, 2023",
    "managingAgency": "US Forest Service",
    "burnType": "Hand Pile",
    "acres": 27,
    "status": "Approved",
    "approvedOn": "Thu Dec 07, 2023 @ 4:01 PM",
    "coordinates": [
      -120.014349,
      38.79812
    ]
  },
  {
    "name": "Wofford Heights- Wofford Heights Park",
    "date": "December 8, 2023",
    "managingAgency": "US Forest Service",
    "burnType": "Hand Pile",
    "acres": 10,
    "status": "Approved",
    "approvedOn": "Tue Dec 05, 2023 @ 3:23 PM",
    "coordinates": [
      -118.44931355803422,
      35.70539819873306
    ]
  },
  {
    "name": "unit 6",
    "date": "December 8, 2023",
    "managingAgency": "Bureau of Land Management",
    "burnType": "Hand Pile",
    "acres": 15,
    "status": "Approved",
    "approvedOn": "Thu Dec 07, 2023 @ 4:08 PM",
    "coordinates": [
      -122.89892627672796,
      40.598188874039764
    ]
  }
]