[
  {
    "name": "41011030",
    "date": "December 22, 2023",
    "managingAgency": "Red Mtn. Resource LLC",
    "burnType": "Machine Pile",
    "acres": 2,
    "status": "Approved",
    "approvedOn": "Thu Dec 21, 2023 @ 4:04 PM",
    "coordinates": [
      -120.538574,
      38.649002
    ]
  },
  {
    "name": "Block 2",
    "date": "December 22, 2023",
    "managingAgency": "Private Landowner",
    "burnType": "Hand Pile",
    "acres": 10,
    "status": "Approved",
    "approvedOn": "Fri Dec 22, 2023 @ 6:43 AM",
    "coordinates": [
      -122.686881,
      38.523198
    ]
  },
  {
    "name": "Caldor ",
    "date": "December 22, 2023",
    "managingAgency": "California Forestry and Excavation",
    "burnType": "Machine Pile",
    "acres": 5,
    "status": "Approved",
    "approvedOn": "Thu Dec 21, 2023 @ 3:29 PM",
    "coordinates": [
      -120.50829193460171,
      38.63545064366902
    ]
  },
  {
    "name": "Carbonizer",
    "date": "December 22, 2023",
    "managingAgency": "Earth Foundries, Inc.",
    "burnType": "Machine Pile",
    "acres": 8,
    "status": "Approved",
    "approvedOn": "Fri Dec 22, 2023 @ 6:43 AM",
    "coordinates": [
      -122.102868,
      37.74467
    ]
  },
  {
    "name": "Carbonizer",
    "date": "December 22, 2023",
    "managingAgency": "Earth Foundries, Inc.",
    "burnType": "Machine Pile",
    "acres": 16,
    "status": "Approved",
    "approvedOn": "Fri Dec 22, 2023 @ 6:44 AM",
    "coordinates": [
      -122.102868,
      37.74467
    ]
  },
  {
    "name": "Cloverdale",
    "date": "December 22, 2023",
    "managingAgency": "Bureau of Land Management",
    "burnType": "Hand Pile",
    "acres": 20,
    "status": "Approved",
    "approvedOn": "Thu Dec 21, 2023 @ 4:38 PM",
    "coordinates": [
      -122.5223,
      40.50123
    ]
  },
  {
    "name": "LorORanch / Everson (26 ac Pile Burn)",
    "date": "December 22, 2023",
    "managingAgency": "Mid Klamath Watershed Council",
    "burnType": "Hand Pile",
    "acres": 13,
    "status": "Approved",
    "approvedOn": "Wed Dec 20, 2023 @ 5:24 PM",
    "coordinates": [
      -123.062676,
      41.099174
    ]
  },
  {
    "name": "PP Ridgetop Unit",
    "date": "December 22, 2023",
    "managingAgency": "CAL FIRE",
    "burnType": "Hand Pile",
    "acres": 0.25,
    "status": "Approved",
    "approvedOn": "Fri Dec 22, 2023 @ 7:27 AM",
    "coordinates": [
      -122.6967554543924,
      38.824323773845265
    ]
  },
  {
    "name": "Piccolotti Timber Harvest Plan SMP 23-37 Piles",
    "date": "December 22, 2023",
    "managingAgency": "Private Landowner",
    "burnType": "Machine Pile",
    "acres": 5,
    "status": "Approved",
    "approvedOn": "Tue Dec 19, 2023 @ 4:07 PM",
    "coordinates": [
      -123.660671,
      39.314706
    ]
  },
  {
    "name": "School ",
    "date": "December 22, 2023",
    "managingAgency": "CAL FIRE",
    "burnType": "Hand Pile",
    "acres": 1,
    "status": "Approved",
    "approvedOn": "Fri Dec 22, 2023 @ 7:27 AM",
    "coordinates": [
      -122.72455980220298,
      38.83153064879018
    ]
  },
  {
    "name": "Shake Fiddletown piles",
    "date": "December 22, 2023",
    "managingAgency": "CAL FIRE",
    "burnType": "Unknown",
    "acres": 2,
    "status": "Approved",
    "approvedOn": "Thu Dec 21, 2023 @ 11:10 AM",
    "coordinates": [
      -120.562982,
      38.71796
    ]
  },
  {
    "name": "Unit 1",
    "date": "December 22, 2023",
    "managingAgency": "CAL FIRE",
    "burnType": "Hand Pile",
    "acres": 5,
    "status": "Approved",
    "approvedOn": "Mon Dec 18, 2023 @ 11:53 AM",
    "coordinates": [
      -122.5286,
      39.5944
    ]
  },
  {
    "name": "Unit 5A",
    "date": "December 22, 2023",
    "managingAgency": "CAL FIRE",
    "burnType": "Hand Pile",
    "acres": 5,
    "status": "Approved",
    "approvedOn": "Wed Dec 20, 2023 @ 1:18 PM",
    "coordinates": [
      -121.81178368850271,
      40.34973214223463
    ]
  }
]