[
  {
    "name": "2023-Forked Meadow Prescribed Burn",
    "date": "October 22, 2023",
    "managingAgency": "Private Landowner",
    "burnType": "Underburn",
    "acres": 45,
    "status": "Approved",
    "approvedOn": "Sat Oct 21, 2023 @ 1:06 PM",
    "coordinates": [
      -119.171464,
      37.060372
    ]
  },
  {
    "name": "2023-Segments 7,8,9,10,11",
    "date": "October 22, 2023",
    "managingAgency": "US Forest Service",
    "burnType": "Underburn",
    "acres": 450,
    "status": "Approved",
    "approvedOn": "Sat Oct 21, 2023 @ 1:18 PM",
    "coordinates": [
      -118.975651,
      36.704991
    ]
  },
  {
    "name": "741",
    "date": "October 22, 2023",
    "managingAgency": "US Forest Service",
    "burnType": "Underburn",
    "acres": 22,
    "status": "Patrol",
    "approvedOn": "Thu Oct 19, 2023 @ 4:21 PM",
    "coordinates": [
      -120.5886,
      38.7171
    ]
  },
  {
    "name": "742",
    "date": "October 22, 2023",
    "managingAgency": "US Forest Service",
    "burnType": "Underburn",
    "acres": 6,
    "status": "Patrol",
    "approvedOn": "Thu Oct 19, 2023 @ 4:21 PM",
    "coordinates": [
      -120.5929,
      38.7125
    ]
  },
  {
    "name": "743",
    "date": "October 22, 2023",
    "managingAgency": "US Forest Service",
    "burnType": "Underburn",
    "acres": 5,
    "status": "Patrol",
    "approvedOn": "Fri Oct 20, 2023 @ 4:43 PM",
    "coordinates": [
      -120.5969,
      38.7093
    ]
  },
  {
    "name": "743",
    "date": "October 22, 2023",
    "managingAgency": "US Forest Service",
    "burnType": "Underburn",
    "acres": 33,
    "status": "Patrol",
    "approvedOn": "Fri Oct 20, 2023 @ 4:43 PM",
    "coordinates": [
      -120.5969,
      38.7093
    ]
  },
  {
    "name": "751",
    "date": "October 22, 2023",
    "managingAgency": "US Forest Service",
    "burnType": "Underburn",
    "acres": 29,
    "status": "Patrol",
    "approvedOn": "Fri Oct 20, 2023 @ 4:43 PM",
    "coordinates": [
      -120.5952,
      38.7086
    ]
  },
  {
    "name": "Elk",
    "date": "October 22, 2023",
    "managingAgency": "US Forest Service",
    "burnType": "Machine Pile",
    "acres": 79,
    "status": "Patrol",
    "approvedOn": "Sat Oct 21, 2023 @ 10:23 AM",
    "coordinates": [
      -121.981,
      41.367
    ]
  },
  {
    "name": "Fox Ridge Area 2(h)",
    "date": "October 22, 2023",
    "managingAgency": "US Forest Service",
    "burnType": "Landing Pile",
    "acres": 5,
    "status": "Approved",
    "approvedOn": "Fri Oct 20, 2023 @ 1:14 PM",
    "coordinates": [
      -123.8716667,
      41.72666667
    ]
  },
  {
    "name": "Pillsbury Homesites",
    "date": "October 22, 2023",
    "managingAgency": "US Forest Service",
    "burnType": "Hand Pile",
    "acres": 63,
    "status": "Approved",
    "approvedOn": "Fri Oct 20, 2023 @ 1:12 PM",
    "coordinates": [
      -122.93902325993368,
      39.426563737962155
    ]
  },
  {
    "name": "UC Hopland SMP 17- 27 Broadcast",
    "date": "October 22, 2023",
    "managingAgency": "Private Landowner",
    "burnType": "Underburn",
    "acres": 1,
    "status": "Approved",
    "approvedOn": "Thu Oct 19, 2023 @ 8:20 PM",
    "coordinates": [
      -123.08624308307957,
      39.00117409228301
    ]
  },
  {
    "name": "Westshore",
    "date": "October 22, 2023",
    "managingAgency": "US Forest Service",
    "burnType": "Hand Pile",
    "acres": 83,
    "status": "Approved",
    "approvedOn": "Fri Oct 20, 2023 @ 1:12 PM",
    "coordinates": [
      -122.99146838337423,
      39.45627136729051
    ]
  }
]