[
  {
    "name": "1A",
    "date": "November 17, 2023",
    "managingAgency": "CAL FIRE",
    "burnType": "Hand Pile",
    "acres": 1,
    "status": "Active",
    "approvedOn": "Thu Nov 16, 2023 @ 7:45 AM",
    "coordinates": [
      -121.91856369190937,
      40.34087201800909
    ]
  },
  {
    "name": "2023-24 Ridgecrest-Piles TEBH",
    "date": "November 17, 2023",
    "managingAgency": "Moraga-Orinda Fire District",
    "burnType": "Hand Pile",
    "acres": 30,
    "status": "Approved",
    "approvedOn": "Fri Nov 17, 2023 @ 7:52 AM",
    "coordinates": [
      -122.162782,
      37.834696
    ]
  },
  {
    "name": "2023-Dinkey Properties Piles",
    "date": "November 17, 2023",
    "managingAgency": "Southern California Edison",
    "burnType": "Hand Pile",
    "acres": 50,
    "status": "Approved",
    "approvedOn": "Thu Nov 16, 2023 @ 4:00 PM",
    "coordinates": [
      -119.1,
      37
    ]
  },
  {
    "name": "2023-Jose Basin Fuel Breaks",
    "date": "November 17, 2023",
    "managingAgency": "US Forest Service",
    "burnType": "Hand Pile",
    "acres": 636,
    "status": "Active",
    "approvedOn": "Thu Nov 16, 2023 @ 3:36 PM",
    "coordinates": [
      -119.325582,
      37.171268
    ]
  },
  {
    "name": "2023-Shaver Lake Understory",
    "date": "November 17, 2023",
    "managingAgency": "Southern California Edison",
    "burnType": "Underburn",
    "acres": 400,
    "status": "Approved",
    "approvedOn": "Thu Nov 16, 2023 @ 3:38 PM",
    "coordinates": [
      -119.288965,
      37.107236
    ]
  },
  {
    "name": "41021036",
    "date": "November 17, 2023",
    "managingAgency": "Red Mtn. Resource LLC",
    "burnType": "Machine Pile",
    "acres": 3,
    "status": "Approved",
    "approvedOn": "Fri Nov 17, 2023 @ 8:09 AM",
    "coordinates": [
      -120.50839,
      38.644711
    ]
  },
  {
    "name": "Administrative Site -  Alandale ",
    "date": "November 17, 2023",
    "managingAgency": "US Forest Service",
    "burnType": "Hand Pile",
    "acres": 5,
    "status": "Active",
    "approvedOn": "Thu Nov 16, 2023 @ 1:53 PM",
    "coordinates": [
      -116.75203621387482,
      33.783392035946136
    ]
  },
  {
    "name": "Amber",
    "date": "November 17, 2023",
    "managingAgency": "US Forest Service",
    "burnType": "Hand Pile",
    "acres": 21,
    "status": "Approved",
    "approvedOn": "Thu Nov 16, 2023 @ 10:46 AM",
    "coordinates": [
      -121.383333,
      40.1525
    ]
  },
  {
    "name": "Amoruso VMP Piles",
    "date": "November 17, 2023",
    "managingAgency": "CAL FIRE",
    "burnType": "Machine Pile",
    "acres": 5,
    "status": "Approved",
    "approvedOn": "Fri Nov 17, 2023 @ 8:45 AM",
    "coordinates": [
      -120.77662972575666,
      38.503883776592325
    ]
  },
  {
    "name": "Audubon Canyon Ranch - BP - Piles",
    "date": "November 17, 2023",
    "managingAgency": "Audubon Canyon Ranch",
    "burnType": "Hand Pile",
    "acres": 10,
    "status": "Approved",
    "approvedOn": "Fri Nov 17, 2023 @ 7:53 AM",
    "coordinates": [
      -122.501944,
      38.367222
    ]
  },
  {
    "name": "Base",
    "date": "November 17, 2023",
    "managingAgency": "CAL FIRE",
    "burnType": "Hand Pile",
    "acres": 0.5,
    "status": "Approved",
    "approvedOn": "Tue Nov 14, 2023 @ 11:29 AM",
    "coordinates": [
      -122.71866363149239,
      38.8336752020556
    ]
  },
  {
    "name": "Block 2",
    "date": "November 17, 2023",
    "managingAgency": "Private Landowner",
    "burnType": "Hand Pile",
    "acres": 10,
    "status": "Approved",
    "approvedOn": "Fri Nov 17, 2023 @ 7:52 AM",
    "coordinates": [
      -122.686881,
      38.523198
    ]
  },
  {
    "name": "Carbonizer",
    "date": "November 17, 2023",
    "managingAgency": "Earth Foundries, Inc.",
    "burnType": "Machine Pile",
    "acres": 10,
    "status": "Approved",
    "approvedOn": "Thu Nov 16, 2023 @ 1:29 PM",
    "coordinates": [
      -122.102868,
      37.74467
    ]
  },
  {
    "name": "Carbonizer",
    "date": "November 17, 2023",
    "managingAgency": "Earth Foundries, Inc.",
    "burnType": "Machine Pile",
    "acres": 20,
    "status": "Approved",
    "approvedOn": "Fri Nov 17, 2023 @ 7:50 AM",
    "coordinates": [
      -122.102868,
      37.74467
    ]
  },
  {
    "name": "Mosquito Piles 2023",
    "date": "November 17, 2023",
    "managingAgency": "Siller Brothers Inc",
    "burnType": "Machine Pile",
    "acres": 5,
    "status": "Approved",
    "approvedOn": "Fri Nov 17, 2023 @ 8:09 AM",
    "coordinates": [
      -120.7053776,
      38.928537
    ]
  },
  {
    "name": "PML VMP Unit 17",
    "date": "November 17, 2023",
    "managingAgency": "CAL FIRE",
    "burnType": "Machine Pile",
    "acres": 2,
    "status": "Approved",
    "approvedOn": "Fri Nov 17, 2023 @ 6:52 AM",
    "coordinates": [
      -120.21656780623022,
      37.87136955958766
    ]
  },
  {
    "name": "Reds FH 3",
    "date": "November 17, 2023",
    "managingAgency": "US Forest Service",
    "burnType": "Hand Pile",
    "acres": 87,
    "status": "Approved",
    "approvedOn": "Thu Nov 16, 2023 @ 11:00 AM",
    "coordinates": [
      -119.03339967465524,
      37.65441926794371
    ]
  },
  {
    "name": "Shake Fiddletown piles",
    "date": "November 17, 2023",
    "managingAgency": "CAL FIRE",
    "burnType": "Hand Pile",
    "acres": 1,
    "status": "Approved",
    "approvedOn": "Fri Nov 17, 2023 @ 8:45 AM",
    "coordinates": [
      -120.562982,
      38.71796
    ]
  },
  {
    "name": "Shiloh 2021 Piles",
    "date": "November 17, 2023",
    "managingAgency": "CAL FIRE",
    "burnType": "Machine Pile",
    "acres": 1,
    "status": "Approved",
    "approvedOn": "Wed Nov 08, 2023 @ 7:02 AM",
    "coordinates": [
      -120.17228,
      38.068191
    ]
  },
  {
    "name": "Sly Park Piles",
    "date": "November 17, 2023",
    "managingAgency": "CAL FIRE",
    "burnType": "Hand Pile",
    "acres": 10,
    "status": "Approved",
    "approvedOn": "Fri Nov 17, 2023 @ 8:09 AM",
    "coordinates": [
      -120.562982,
      38.71796
    ]
  },
  {
    "name": "Spud",
    "date": "November 17, 2023",
    "managingAgency": "Collins Pine Company",
    "burnType": "Hand Pile",
    "acres": 4,
    "status": "Approved",
    "approvedOn": "Thu Nov 16, 2023 @ 7:45 AM",
    "coordinates": [
      -121.501175,
      40.303601
    ]
  },
  {
    "name": "Unit 1",
    "date": "November 17, 2023",
    "managingAgency": "CAL FIRE",
    "burnType": "Hand Pile",
    "acres": 1,
    "status": "Active",
    "approvedOn": "Mon Nov 13, 2023 @ 1:55 PM",
    "coordinates": [
      -122.5286,
      39.5944
    ]
  },
  {
    "name": "Unit 5",
    "date": "November 17, 2023",
    "managingAgency": "Bureau of Land Management",
    "burnType": "Hand Pile",
    "acres": 25,
    "status": "Approved",
    "approvedOn": "Thu Nov 16, 2023 @ 8:46 AM",
    "coordinates": [
      -122.88244733370435,
      40.607399928175305
    ]
  },
  {
    "name": "Unit 5A",
    "date": "November 17, 2023",
    "managingAgency": "CAL FIRE",
    "burnType": "Hand Pile",
    "acres": 5,
    "status": "Active",
    "approvedOn": "Thu Nov 16, 2023 @ 2:51 PM",
    "coordinates": [
      -121.81178368850271,
      40.34973214223463
    ]
  },
  {
    "name": "Wawona ",
    "date": "November 17, 2023",
    "managingAgency": "National Park Service",
    "burnType": "Hand Pile",
    "acres": 180,
    "status": "Approved",
    "approvedOn": "Thu Nov 16, 2023 @ 7:20 PM",
    "coordinates": [
      -119.6339989,
      37.53932605
    ]
  },
  {
    "name": "Wawona - Woodlot",
    "date": "November 17, 2023",
    "managingAgency": "National Park Service",
    "burnType": "Machine Pile",
    "acres": 1,
    "status": "Approved",
    "approvedOn": "Thu Nov 16, 2023 @ 7:20 PM",
    "coordinates": [
      -119.651497,
      37.539913
    ]
  },
  {
    "name": "Yosemite Valley - Woodlot",
    "date": "November 17, 2023",
    "managingAgency": "National Park Service",
    "burnType": "Machine Pile",
    "acres": 1,
    "status": "Approved",
    "approvedOn": "Thu Nov 16, 2023 @ 7:20 PM",
    "coordinates": [
      -119.642324,
      37.724553
    ]
  }
]