[
  {
    "name": "2023-MCR Duck Slough 2",
    "date": "October 4, 2023",
    "managingAgency": "US Fish and Wildlife Services",
    "burnType": "Underburn",
    "acres": 73,
    "status": "Approved",
    "approvedOn": "Tue Oct 03, 2023 @ 3:43 PM",
    "coordinates": [
      -120.600732,
      37.201133
    ]
  },
  {
    "name": "2023-MCR Tour Route",
    "date": "October 4, 2023",
    "managingAgency": "US Fish and Wildlife Services",
    "burnType": "Underburn",
    "acres": 32,
    "status": "Approved",
    "approvedOn": "Tue Oct 03, 2023 @ 3:45 PM",
    "coordinates": [
      -120.620688,
      37.180542
    ]
  },
  {
    "name": "2023-Segments 1,2,3,4,6",
    "date": "October 4, 2023",
    "managingAgency": "US Forest Service",
    "burnType": "Underburn",
    "acres": 300,
    "status": "Approved",
    "approvedOn": "Tue Oct 03, 2023 @ 3:36 PM",
    "coordinates": [
      -118.972035,
      36.715202
    ]
  },
  {
    "name": "2023-Shaver Lake Understory",
    "date": "October 4, 2023",
    "managingAgency": "Southern California Edison",
    "burnType": "Underburn",
    "acres": 400,
    "status": "Approved",
    "approvedOn": "Tue Oct 03, 2023 @ 3:38 PM",
    "coordinates": [
      -119.288965,
      37.107236
    ]
  },
  {
    "name": "CATM (site 2-0)",
    "date": "October 4, 2023",
    "managingAgency": "Beale Air Force Base",
    "burnType": "Underburn",
    "acres": 37,
    "status": "Approved",
    "approvedOn": "Sun Oct 01, 2023 @ 8:21 AM",
    "coordinates": [
      -121.38076758551028,
      39.113952280739255
    ]
  },
  {
    "name": "Fallen Leaf HT 172",
    "date": "October 4, 2023",
    "managingAgency": "US Forest Service",
    "burnType": "Hand Pile",
    "acres": 10,
    "status": "Approved",
    "approvedOn": "Tue Oct 03, 2023 @ 4:19 PM",
    "coordinates": [
      -120.051608,
      38.890627
    ]
  },
  {
    "name": "Fallen Leaf HT 172",
    "date": "October 4, 2023",
    "managingAgency": "US Forest Service",
    "burnType": "Hand Pile",
    "acres": 10,
    "status": "Approved",
    "approvedOn": "Tue Oct 03, 2023 @ 4:19 PM",
    "coordinates": [
      -120.051608,
      38.890627
    ]
  },
  {
    "name": "Pit 4",
    "date": "October 4, 2023",
    "managingAgency": "US Forest Service",
    "burnType": "Underburn",
    "acres": 50,
    "status": "Approved",
    "approvedOn": "Wed Oct 04, 2023 @ 9:16 AM",
    "coordinates": [
      -118.92974798727901,
      37.63788713396366
    ]
  },
  {
    "name": "Unit A",
    "date": "October 4, 2023",
    "managingAgency": "Marin County Fire Department",
    "burnType": "Underburn",
    "acres": 146,
    "status": "Approved",
    "approvedOn": "Wed Oct 04, 2023 @ 7:51 AM",
    "coordinates": [
      -122.601328,
      38.065889
    ]
  },
  {
    "name": "Unit E",
    "date": "October 4, 2023",
    "managingAgency": "Marin County Fire Department",
    "burnType": "Underburn",
    "acres": 52,
    "status": "Approved",
    "approvedOn": "Wed Oct 04, 2023 @ 7:51 AM",
    "coordinates": [
      -122.623402,
      38.086796
    ]
  },
  {
    "name": "Unit F",
    "date": "October 4, 2023",
    "managingAgency": "Marin County Fire Department",
    "burnType": "Underburn",
    "acres": 35,
    "status": "Approved",
    "approvedOn": "Wed Oct 04, 2023 @ 7:51 AM",
    "coordinates": [
      -122.628735,
      38.091004
    ]
  },
  {
    "name": "West Shore",
    "date": "October 4, 2023",
    "managingAgency": "US Forest Service",
    "burnType": "Underburn",
    "acres": 100,
    "status": "Approved",
    "approvedOn": "Wed Sep 27, 2023 @ 9:43 AM",
    "coordinates": [
      -121.1876,
      40.2017
    ]
  }
]